header:
  stamp:
    sec: 0
    nanosec: 0
  frame_id: map
poses:
- header:
    stamp:
      sec: 1598439871
      nanosec: 648255892
    frame_id: map
  pose:
    position:
      x: 0.0
      y: 0.0
      z: 0.0
    orientation:
      x: 0.0
      y: 0.0
      z: 0.0
      w: 1.0
- header:
    stamp:
      sec: 1509348797
      nanosec: 460626000
    frame_id: map
  pose:
    position:
      x: -0.003926868550479412
      y: 0.0004364049236755818
      z: -0.007254404481500387
    orientation:
      x: 0.000281525874766628
      y: 0.0009605835576612388
      z: -3.90305972289151e-06
      w: 0.9999994933603911
---
header:
  stamp:
    sec: 0
    nanosec: 0
  frame_id: map
poses:
- header:
    stamp:
      sec: 1598439871
      nanosec: 648255892
    frame_id: map
  pose:
    position:
      x: 0.0
      y: 0.0
      z: 0.0
    orientation:
      x: 0.0
      y: 0.0
      z: 0.0
      w: 1.0
- header:
    stamp:
      sec: 1509348797
      nanosec: 460626000
    frame_id: map
  pose:
    position:
      x: -0.003926868550479412
      y: 0.0004364049236755818
      z: -0.007254404481500387
    orientation:
      x: 0.000281525874766628
      y: 0.0009605835576612388
      z: -3.90305972289151e-06
      w: 0.9999994933603911
- header:
    stamp:
      sec: 1509348797
      nanosec: 560689000
    frame_id: map
  pose:
    position:
      x: 0.01081092655658722
      y: 0.021282223984599113
      z: -0.00786131527274847
    orientation:
      x: -0.0024299940079300707
      y: 0.002961928307396469
      z: -0.000372004016010919
      w: 0.9999925940954629
---
header:
  stamp:
    sec: 0
    nanosec: 0
  frame_id: map
poses:
- header:
    stamp:
      sec: 1598439871
      nanosec: 648255892
    frame_id: map
  pose:
    position:
      x: 0.0
      y: 0.0
      z: 0.0
    orientation:
      x: 0.0
      y: 0.0
      z: 0.0
      w: 1.0
- header:
    stamp:
      sec: 1509348797
      nanosec: 460626000
    frame_id: map
  pose:
    position:
      x: -0.003926868550479412
      y: 0.0004364049236755818
      z: -0.007254404481500387
    orientation:
      x: 0.000281525874766628
      y: 0.0009605835576612388
      z: -3.90305972289151e-06
      w: 0.9999994933603911
- header:
    stamp:
      sec: 1509348797
      nanosec: 560689000
    frame_id: map
  pose:
    position:
      x: 0.01081092655658722
      y: 0.021282223984599113
      z: -0.00786131527274847
    orientation:
      x: -0.0024299940079300707
      y: 0.002961928307396469
      z: -0.000372004016010919
      w: 0.9999925940954629
- header:
    stamp:
      sec: 1509348810
      nanosec: 872114000
    frame_id: map
  pose:
    position:
      x: -0.14239881932735443
      y: 0.0063366033136844635
      z: -0.10315520316362381
    orientation:
      x: -0.051223600199866035
      y: -0.015379874620218337
      z: 0.0036586986956315816
      w: 0.9985620620945285
---
header:
  stamp:
    sec: 0
    nanosec: 0
  frame_id: map
poses:
- header:
    stamp:
      sec: 1598439871
      nanosec: 648255892
    frame_id: map
  pose:
    position:
      x: 0.0
      y: 0.0
      z: 0.0
    orientation:
      x: 0.0
      y: 0.0
      z: 0.0
      w: 1.0
- header:
    stamp:
      sec: 1509348797
      nanosec: 460626000
    frame_id: map
  pose:
    position:
      x: -0.003926868550479412
      y: 0.0004364049236755818
      z: -0.007254404481500387
    orientation:
      x: 0.000281525874766628
      y: 0.0009605835576612388
      z: -3.90305972289151e-06
      w: 0.9999994933603911
- header:
    stamp:
      sec: 1509348797
      nanosec: 560689000
    frame_id: map
  pose:
    position:
      x: 0.01081092655658722
      y: 0.021282223984599113
      z: -0.00786131527274847
    orientation:
      x: -0.0024299940079300707
      y: 0.002961928307396469
      z: -0.000372004016010919
      w: 0.9999925940954629
- header:
    stamp:
      sec: 1509348810
      nanosec: 872114000
    frame_id: map
  pose:
    position:
      x: -0.14239881932735443
      y: 0.0063366033136844635
      z: -0.10315520316362381
    orientation:
      x: -0.051223600199866035
      y: -0.015379874620218337
      z: 0.0036586986956315816
      w: 0.9985620620945285
- header:
    stamp:
      sec: 1509348810
      nanosec: 972192000
    frame_id: map
  pose:
    position:
      x: -0.1351904273033142
      y: -1.0619654655456543
      z: -0.09880998730659485
    orientation:
      x: -0.029009982863402145
      y: -0.027563470089825442
      z: 0.0012345373385950265
      w: 0.9991982494455355
---
header:
  stamp:
    sec: 0
    nanosec: 0
  frame_id: map
poses:
- header:
    stamp:
      sec: 1598439871
      nanosec: 648255892
    frame_id: map
  pose:
    position:
      x: 0.0
      y: 0.0
      z: 0.0
    orientation:
      x: 0.0
      y: 0.0
      z: 0.0
      w: 1.0
- header:
    stamp:
      sec: 1509348797
      nanosec: 460626000
    frame_id: map
  pose:
    position:
      x: -0.003926868550479412
      y: 0.0004364049236755818
      z: -0.007254404481500387
    orientation:
      x: 0.000281525874766628
      y: 0.0009605835576612388
      z: -3.90305972289151e-06
      w: 0.9999994933603911
- header:
    stamp:
      sec: 1509348797
      nanosec: 560689000
    frame_id: map
  pose:
    position:
      x: 0.01081092655658722
      y: 0.021282223984599113
      z: -0.00786131527274847
    orientation:
      x: -0.0024299940079300707
      y: 0.002961928307396469
      z: -0.000372004016010919
      w: 0.9999925940954629
- header:
    stamp:
      sec: 1509348810
      nanosec: 872114000
    frame_id: map
  pose:
    position:
      x: -0.14239881932735443
      y: 0.0063366033136844635
      z: -0.10315520316362381
    orientation:
      x: -0.051223600199866035
      y: -0.015379874620218337
      z: 0.0036586986956315816
      w: 0.9985620620945285
- header:
    stamp:
      sec: 1509348810
      nanosec: 972192000
    frame_id: map
  pose:
    position:
      x: -0.1351904273033142
      y: -1.0619654655456543
      z: -0.09880998730659485
    orientation:
      x: -0.029009982863402145
      y: -0.027563470089825442
      z: 0.0012345373385950265
      w: 0.9991982494455355
- header:
    stamp:
      sec: 1509348811
      nanosec: 72261000
    frame_id: map
  pose:
    position:
      x: -0.2209320217370987
      y: -1.2300878763198853
      z: 0.017038779333233833
    orientation:
      x: -0.022692479697855355
      y: -0.03189442719894732
      z: -0.016304049488783875
      w: 0.9991005637489067
---
header:
  stamp:
    sec: 0
    nanosec: 0
  frame_id: map
poses:
- header:
    stamp:
      sec: 1598439871
      nanosec: 648255892
    frame_id: map
  pose:
    position:
      x: 0.0
      y: 0.0
      z: 0.0
    orientation:
      x: 0.0
      y: 0.0
      z: 0.0
      w: 1.0
- header:
    stamp:
      sec: 1509348797
      nanosec: 460626000
    frame_id: map
  pose:
    position:
      x: -0.003926868550479412
      y: 0.0004364049236755818
      z: -0.007254404481500387
    orientation:
      x: 0.000281525874766628
      y: 0.0009605835576612388
      z: -3.90305972289151e-06
      w: 0.9999994933603911
- header:
    stamp:
      sec: 1509348797
      nanosec: 560689000
    frame_id: map
  pose:
    position:
      x: 0.01081092655658722
      y: 0.021282223984599113
      z: -0.00786131527274847
    orientation:
      x: -0.0024299940079300707
      y: 0.002961928307396469
      z: -0.000372004016010919
      w: 0.9999925940954629
- header:
    stamp:
      sec: 1509348810
      nanosec: 872114000
    frame_id: map
  pose:
    position:
      x: -0.14239881932735443
      y: 0.0063366033136844635
      z: -0.10315520316362381
    orientation:
      x: -0.051223600199866035
      y: -0.015379874620218337
      z: 0.0036586986956315816
      w: 0.9985620620945285
- header:
    stamp:
      sec: 1509348810
      nanosec: 972192000
    frame_id: map
  pose:
    position:
      x: -0.1351904273033142
      y: -1.0619654655456543
      z: -0.09880998730659485
    orientation:
      x: -0.029009982863402145
      y: -0.027563470089825442
      z: 0.0012345373385950265
      w: 0.9991982494455355
- header:
    stamp:
      sec: 1509348811
      nanosec: 72261000
    frame_id: map
  pose:
    position:
      x: -0.2209320217370987
      y: -1.2300878763198853
      z: 0.017038779333233833
    orientation:
      x: -0.022692479697855355
      y: -0.03189442719894732
      z: -0.016304049488783875
      w: 0.9991005637489067
- header:
    stamp:
      sec: 1509348811
      nanosec: 172387000
    frame_id: map
  pose:
    position:
      x: -0.38376584649086
      y: -0.32145553827285767
      z: 0.017964337021112442
    orientation:
      x: -0.03065115848173916
      y: -0.028021385589277536
      z: -0.0125364924158127
      w: 0.9990586305387638
---
header:
  stamp:
    sec: 0
    nanosec: 0
  frame_id: map
poses:
- header:
    stamp:
      sec: 1598439871
      nanosec: 648255892
    frame_id: map
  pose:
    position:
      x: 0.0
      y: 0.0
      z: 0.0
    orientation:
      x: 0.0
      y: 0.0
      z: 0.0
      w: 1.0
- header:
    stamp:
      sec: 1509348797
      nanosec: 460626000
    frame_id: map
  pose:
    position:
      x: -0.003926868550479412
      y: 0.0004364049236755818
      z: -0.007254404481500387
    orientation:
      x: 0.000281525874766628
      y: 0.0009605835576612388
      z: -3.90305972289151e-06
      w: 0.9999994933603911
- header:
    stamp:
      sec: 1509348797
      nanosec: 560689000
    frame_id: map
  pose:
    position:
      x: 0.01081092655658722
      y: 0.021282223984599113
      z: -0.00786131527274847
    orientation:
      x: -0.0024299940079300707
      y: 0.002961928307396469
      z: -0.000372004016010919
      w: 0.9999925940954629
- header:
    stamp:
      sec: 1509348810
      nanosec: 872114000
    frame_id: map
  pose:
    position:
      x: -0.14239881932735443
      y: 0.0063366033136844635
      z: -0.10315520316362381
    orientation:
      x: -0.051223600199866035
      y: -0.015379874620218337
      z: 0.0036586986956315816
      w: 0.9985620620945285
- header:
    stamp:
      sec: 1509348810
      nanosec: 972192000
    frame_id: map
  pose:
    position:
      x: -0.1351904273033142
      y: -1.0619654655456543
      z: -0.09880998730659485
    orientation:
      x: -0.029009982863402145
      y: -0.027563470089825442
      z: 0.0012345373385950265
      w: 0.9991982494455355
- header:
    stamp:
      sec: 1509348811
      nanosec: 72261000
    frame_id: map
  pose:
    position:
      x: -0.2209320217370987
      y: -1.2300878763198853
      z: 0.017038779333233833
    orientation:
      x: -0.022692479697855355
      y: -0.03189442719894732
      z: -0.016304049488783875
      w: 0.9991005637489067
- header:
    stamp:
      sec: 1509348811
      nanosec: 172387000
    frame_id: map
  pose:
    position:
      x: -0.38376584649086
      y: -0.32145553827285767
      z: 0.017964337021112442
    orientation:
      x: -0.03065115848173916
      y: -0.028021385589277536
      z: -0.0125364924158127
      w: 0.9990586305387638
- header:
    stamp:
      sec: 1509348811
      nanosec: 572716000
    frame_id: map
  pose:
    position:
      x: -0.7893626093864441
      y: -1.7211178541183472
      z: -0.006484846118837595
    orientation:
      x: -0.013162247725093421
      y: 0.008162681323573697
      z: -0.038224333261569626
      w: 0.9991491542556208
---
header:
  stamp:
    sec: 0
    nanosec: 0
  frame_id: map
poses:
- header:
    stamp:
      sec: 1598439871
      nanosec: 648255892
    frame_id: map
  pose:
    position:
      x: 0.0
      y: 0.0
      z: 0.0
    orientation:
      x: 0.0
      y: 0.0
      z: 0.0
      w: 1.0
- header:
    stamp:
      sec: 1509348797
      nanosec: 460626000
    frame_id: map
  pose:
    position:
      x: -0.003926868550479412
      y: 0.0004364049236755818
      z: -0.007254404481500387
    orientation:
      x: 0.000281525874766628
      y: 0.0009605835576612388
      z: -3.90305972289151e-06
      w: 0.9999994933603911
- header:
    stamp:
      sec: 1509348797
      nanosec: 560689000
    frame_id: map
  pose:
    position:
      x: 0.01081092655658722
      y: 0.021282223984599113
      z: -0.00786131527274847
    orientation:
      x: -0.0024299940079300707
      y: 0.002961928307396469
      z: -0.000372004016010919
      w: 0.9999925940954629
- header:
    stamp:
      sec: 1509348810
      nanosec: 872114000
    frame_id: map
  pose:
    position:
      x: -0.14239881932735443
      y: 0.0063366033136844635
      z: -0.10315520316362381
    orientation:
      x: -0.051223600199866035
      y: -0.015379874620218337
      z: 0.0036586986956315816
      w: 0.9985620620945285
- header:
    stamp:
      sec: 1509348810
      nanosec: 972192000
    frame_id: map
  pose:
    position:
      x: -0.1351904273033142
      y: -1.0619654655456543
      z: -0.09880998730659485
    orientation:
      x: -0.029009982863402145
      y: -0.027563470089825442
      z: 0.0012345373385950265
      w: 0.9991982494455355
- header:
    stamp:
      sec: 1509348811
      nanosec: 72261000
    frame_id: map
  pose:
    position:
      x: -0.2209320217370987
      y: -1.2300878763198853
      z: 0.017038779333233833
    orientation:
      x: -0.022692479697855355
      y: -0.03189442719894732
      z: -0.016304049488783875
      w: 0.9991005637489067
- header:
    stamp:
      sec: 1509348811
      nanosec: 172387000
    frame_id: map
  pose:
    position:
      x: -0.38376584649086
      y: -0.32145553827285767
      z: 0.017964337021112442
    orientation:
      x: -0.03065115848173916
      y: -0.028021385589277536
      z: -0.0125364924158127
      w: 0.9990586305387638
- header:
    stamp:
      sec: 1509348811
      nanosec: 572716000
    frame_id: map
  pose:
    position:
      x: -0.7893626093864441
      y: -1.7211178541183472
      z: -0.006484846118837595
    orientation:
      x: -0.013162247725093421
      y: 0.008162681323573697
      z: -0.038224333261569626
      w: 0.9991491542556208
- header:
    stamp:
      sec: 1509348811
      nanosec: 672801000
    frame_id: map
  pose:
    position:
      x: -1.024466872215271
      y: -1.6724268198013306
      z: 0.10998120158910751
    orientation:
      x: -0.024224750056970716
      y: 0.014584046478271747
      z: -0.0405000649858324
      w: 0.9987793565524915
---
header:
  stamp:
    sec: 0
    nanosec: 0
  frame_id: map
poses:
- header:
    stamp:
      sec: 1598439871
      nanosec: 648255892
    frame_id: map
  pose:
    position:
      x: 0.0
      y: 0.0
      z: 0.0
    orientation:
      x: 0.0
      y: 0.0
      z: 0.0
      w: 1.0
- header:
    stamp:
      sec: 1509348797
      nanosec: 460626000
    frame_id: map
  pose:
    position:
      x: -0.003926868550479412
      y: 0.0004364049236755818
      z: -0.007254404481500387
    orientation:
      x: 0.000281525874766628
      y: 0.0009605835576612388
      z: -3.90305972289151e-06
      w: 0.9999994933603911
- header:
    stamp:
      sec: 1509348797
      nanosec: 560689000
    frame_id: map
  pose:
    position:
      x: 0.01081092655658722
      y: 0.021282223984599113
      z: -0.00786131527274847
    orientation:
      x: -0.0024299940079300707
      y: 0.002961928307396469
      z: -0.000372004016010919
      w: 0.9999925940954629
- header:
    stamp:
      sec: 1509348810
      nanosec: 872114000
    frame_id: map
  pose:
    position:
      x: -0.14239881932735443
      y: 0.0063366033136844635
      z: -0.10315520316362381
    orientation:
      x: -0.051223600199866035
      y: -0.015379874620218337
      z: 0.0036586986956315816
      w: 0.9985620620945285
- header:
    stamp:
      sec: 1509348810
      nanosec: 972192000
    frame_id: map
  pose:
    position:
      x: -0.1351904273033142
      y: -1.0619654655456543
      z: -0.09880998730659485
    orientation:
      x: -0.029009982863402145
      y: -0.027563470089825442
      z: 0.0012345373385950265
      w: 0.9991982494455355
- header:
    stamp:
      sec: 1509348811
      nanosec: 72261000
    frame_id: map
  pose:
    position:
      x: -0.2209320217370987
      y: -1.2300878763198853
      z: 0.017038779333233833
    orientation:
      x: -0.022692479697855355
      y: -0.03189442719894732
      z: -0.016304049488783875
      w: 0.9991005637489067
- header:
    stamp:
      sec: 1509348811
      nanosec: 172387000
    frame_id: map
  pose:
    position:
      x: -0.38376584649086
      y: -0.32145553827285767
      z: 0.017964337021112442
    orientation:
      x: -0.03065115848173916
      y: -0.028021385589277536
      z: -0.0125364924158127
      w: 0.9990586305387638
- header:
    stamp:
      sec: 1509348811
      nanosec: 572716000
    frame_id: map
  pose:
    position:
      x: -0.7893626093864441
      y: -1.7211178541183472
      z: -0.006484846118837595
    orientation:
      x: -0.013162247725093421
      y: 0.008162681323573697
      z: -0.038224333261569626
      w: 0.9991491542556208
- header:
    stamp:
      sec: 1509348811
      nanosec: 672801000
    frame_id: map
  pose:
    position:
      x: -1.024466872215271
      y: -1.6724268198013306
      z: 0.10998120158910751
    orientation:
      x: -0.024224750056970716
      y: 0.014584046478271747
      z: -0.0405000649858324
      w: 0.9987793565524915
- header:
    stamp:
      sec: 1509348811
      nanosec: 772850000
    frame_id: map
  pose:
    position:
      x: -0.7595919370651245
      y: -1.4140671491622925
      z: 0.050435397773981094
    orientation:
      x: -0.03995224615301864
      y: 0.0035000344825828313
      z: -0.02229092141098939
      w: 0.9989467751779395
---
header:
  stamp:
    sec: 0
    nanosec: 0
  frame_id: map
poses:
- header:
    stamp:
      sec: 1598439871
      nanosec: 648255892
    frame_id: map
  pose:
    position:
      x: 0.0
      y: 0.0
      z: 0.0
    orientation:
      x: 0.0
      y: 0.0
      z: 0.0
      w: 1.0
- header:
    stamp:
      sec: 1509348797
      nanosec: 460626000
    frame_id: map
  pose:
    position:
      x: -0.003926868550479412
      y: 0.0004364049236755818
      z: -0.007254404481500387
    orientation:
      x: 0.000281525874766628
      y: 0.0009605835576612388
      z: -3.90305972289151e-06
      w: 0.9999994933603911
- header:
    stamp:
      sec: 1509348797
      nanosec: 560689000
    frame_id: map
  pose:
    position:
      x: 0.01081092655658722
      y: 0.021282223984599113
      z: -0.00786131527274847
    orientation:
      x: -0.0024299940079300707
      y: 0.002961928307396469
      z: -0.000372004016010919
      w: 0.9999925940954629
- header:
    stamp:
      sec: 1509348810
      nanosec: 872114000
    frame_id: map
  pose:
    position:
      x: -0.14239881932735443
      y: 0.0063366033136844635
      z: -0.10315520316362381
    orientation:
      x: -0.051223600199866035
      y: -0.015379874620218337
      z: 0.0036586986956315816
      w: 0.9985620620945285
- header:
    stamp:
      sec: 1509348810
      nanosec: 972192000
    frame_id: map
  pose:
    position:
      x: -0.1351904273033142
      y: -1.0619654655456543
      z: -0.09880998730659485
    orientation:
      x: -0.029009982863402145
      y: -0.027563470089825442
      z: 0.0012345373385950265
      w: 0.9991982494455355
- header:
    stamp:
      sec: 1509348811
      nanosec: 72261000
    frame_id: map
  pose:
    position:
      x: -0.2209320217370987
      y: -1.2300878763198853
      z: 0.017038779333233833
    orientation:
      x: -0.022692479697855355
      y: -0.03189442719894732
      z: -0.016304049488783875
      w: 0.9991005637489067
- header:
    stamp:
      sec: 1509348811
      nanosec: 172387000
    frame_id: map
  pose:
    position:
      x: -0.38376584649086
      y: -0.32145553827285767
      z: 0.017964337021112442
    orientation:
      x: -0.03065115848173916
      y: -0.028021385589277536
      z: -0.0125364924158127
      w: 0.9990586305387638
- header:
    stamp:
      sec: 1509348811
      nanosec: 572716000
    frame_id: map
  pose:
    position:
      x: -0.7893626093864441
      y: -1.7211178541183472
      z: -0.006484846118837595
    orientation:
      x: -0.013162247725093421
      y: 0.008162681323573697
      z: -0.038224333261569626
      w: 0.9991491542556208
- header:
    stamp:
      sec: 1509348811
      nanosec: 672801000
    frame_id: map
  pose:
    position:
      x: -1.024466872215271
      y: -1.6724268198013306
      z: 0.10998120158910751
    orientation:
      x: -0.024224750056970716
      y: 0.014584046478271747
      z: -0.0405000649858324
      w: 0.9987793565524915
- header:
    stamp:
      sec: 1509348811
      nanosec: 772850000
    frame_id: map
  pose:
    position:
      x: -0.7595919370651245
      y: -1.4140671491622925
      z: 0.050435397773981094
    orientation:
      x: -0.03995224615301864
      y: 0.0035000344825828313
      z: -0.02229092141098939
      w: 0.9989467751779395
- header:
    stamp:
      sec: 1509348811
      nanosec: 872896000
    frame_id: map
  pose:
    position:
      x: -0.7961295247077942
      y: -1.3277673721313477
      z: 0.02862478792667389
    orientation:
      x: -0.05116536551127964
      y: 0.004468650134294575
      z: -0.029873530565943426
      w: 0.998233277593268
---
header:
  stamp:
    sec: 0
    nanosec: 0
  frame_id: map
poses:
- header:
    stamp:
      sec: 1598439871
      nanosec: 648255892
    frame_id: map
  pose:
    position:
      x: 0.0
      y: 0.0
      z: 0.0
    orientation:
      x: 0.0
      y: 0.0
      z: 0.0
      w: 1.0
- header:
    stamp:
      sec: 1509348797
      nanosec: 460626000
    frame_id: map
  pose:
    position:
      x: -0.003926868550479412
      y: 0.0004364049236755818
      z: -0.007254404481500387
    orientation:
      x: 0.000281525874766628
      y: 0.0009605835576612388
      z: -3.90305972289151e-06
      w: 0.9999994933603911
- header:
    stamp:
      sec: 1509348797
      nanosec: 560689000
    frame_id: map
  pose:
    position:
      x: 0.01081092655658722
      y: 0.021282223984599113
      z: -0.00786131527274847
    orientation:
      x: -0.0024299940079300707
      y: 0.002961928307396469
      z: -0.000372004016010919
      w: 0.9999925940954629
- header:
    stamp:
      sec: 1509348810
      nanosec: 872114000
    frame_id: map
  pose:
    position:
      x: -0.14239881932735443
      y: 0.0063366033136844635
      z: -0.10315520316362381
    orientation:
      x: -0.051223600199866035
      y: -0.015379874620218337
      z: 0.0036586986956315816
      w: 0.9985620620945285
- header:
    stamp:
      sec: 1509348810
      nanosec: 972192000
    frame_id: map
  pose:
    position:
      x: -0.1351904273033142
      y: -1.0619654655456543
      z: -0.09880998730659485
    orientation:
      x: -0.029009982863402145
      y: -0.027563470089825442
      z: 0.0012345373385950265
      w: 0.9991982494455355
- header:
    stamp:
      sec: 1509348811
      nanosec: 72261000
    frame_id: map
  pose:
    position:
      x: -0.2209320217370987
      y: -1.2300878763198853
      z: 0.017038779333233833
    orientation:
      x: -0.022692479697855355
      y: -0.03189442719894732
      z: -0.016304049488783875
      w: 0.9991005637489067
- header:
    stamp:
      sec: 1509348811
      nanosec: 172387000
    frame_id: map
  pose:
    position:
      x: -0.38376584649086
      y: -0.32145553827285767
      z: 0.017964337021112442
    orientation:
      x: -0.03065115848173916
      y: -0.028021385589277536
      z: -0.0125364924158127
      w: 0.9990586305387638
- header:
    stamp:
      sec: 1509348811
      nanosec: 572716000
    frame_id: map
  pose:
    position:
      x: -0.7893626093864441
      y: -1.7211178541183472
      z: -0.006484846118837595
    orientation:
      x: -0.013162247725093421
      y: 0.008162681323573697
      z: -0.038224333261569626
      w: 0.9991491542556208
- header:
    stamp:
      sec: 1509348811
      nanosec: 672801000
    frame_id: map
  pose:
    position:
      x: -1.024466872215271
      y: -1.6724268198013306
      z: 0.10998120158910751
    orientation:
      x: -0.024224750056970716
      y: 0.014584046478271747
      z: -0.0405000649858324
      w: 0.9987793565524915
- header:
    stamp:
      sec: 1509348811
      nanosec: 772850000
    frame_id: map
  pose:
    position:
      x: -0.7595919370651245
      y: -1.4140671491622925
      z: 0.050435397773981094
    orientation:
      x: -0.03995224615301864
      y: 0.0035000344825828313
      z: -0.02229092141098939
      w: 0.9989467751779395
- header:
    stamp:
      sec: 1509348811
      nanosec: 872896000
    frame_id: map
  pose:
    position:
      x: -0.7961295247077942
      y: -1.3277673721313477
      z: 0.02862478792667389
    orientation:
      x: -0.05116536551127964
      y: 0.004468650134294575
      z: -0.029873530565943426
      w: 0.998233277593268
- header:
    stamp:
      sec: 1509348812
      nanosec: 173300000
    frame_id: map
  pose:
    position:
      x: -0.778630793094635
      y: -0.8969044089317322
      z: 0.03402383625507355
    orientation:
      x: -0.03658928729199323
      y: 0.0036649315857382224
      z: -0.05305421589732277
      w: 0.9979143446627834
---
header:
  stamp:
    sec: 0
    nanosec: 0
  frame_id: map
poses:
- header:
    stamp:
      sec: 1598439871
      nanosec: 648255892
    frame_id: map
  pose:
    position:
      x: 0.0
      y: 0.0
      z: 0.0
    orientation:
      x: 0.0
      y: 0.0
      z: 0.0
      w: 1.0
- header:
    stamp:
      sec: 1509348797
      nanosec: 460626000
    frame_id: map
  pose:
    position:
      x: -0.003926868550479412
      y: 0.0004364049236755818
      z: -0.007254404481500387
    orientation:
      x: 0.000281525874766628
      y: 0.0009605835576612388
      z: -3.90305972289151e-06
      w: 0.9999994933603911
- header:
    stamp:
      sec: 1509348797
      nanosec: 560689000
    frame_id: map
  pose:
    position:
      x: 0.01081092655658722
      y: 0.021282223984599113
      z: -0.00786131527274847
    orientation:
      x: -0.0024299940079300707
      y: 0.002961928307396469
      z: -0.000372004016010919
      w: 0.9999925940954629
- header:
    stamp:
      sec: 1509348810
      nanosec: 872114000
    frame_id: map
  pose:
    position:
      x: -0.14239881932735443
      y: 0.0063366033136844635
      z: -0.10315520316362381
    orientation:
      x: -0.051223600199866035
      y: -0.015379874620218337
      z: 0.0036586986956315816
      w: 0.9985620620945285
- header:
    stamp:
      sec: 1509348810
      nanosec: 972192000
    frame_id: map
  pose:
    position:
      x: -0.1351904273033142
      y: -1.0619654655456543
      z: -0.09880998730659485
    orientation:
      x: -0.029009982863402145
      y: -0.027563470089825442
      z: 0.0012345373385950265
      w: 0.9991982494455355
- header:
    stamp:
      sec: 1509348811
      nanosec: 72261000
    frame_id: map
  pose:
    position:
      x: -0.2209320217370987
      y: -1.2300878763198853
      z: 0.017038779333233833
    orientation:
      x: -0.022692479697855355
      y: -0.03189442719894732
      z: -0.016304049488783875
      w: 0.9991005637489067
- header:
    stamp:
      sec: 1509348811
      nanosec: 172387000
    frame_id: map
  pose:
    position:
      x: -0.38376584649086
      y: -0.32145553827285767
      z: 0.017964337021112442
    orientation:
      x: -0.03065115848173916
      y: -0.028021385589277536
      z: -0.0125364924158127
      w: 0.9990586305387638
- header:
    stamp:
      sec: 1509348811
      nanosec: 572716000
    frame_id: map
  pose:
    position:
      x: -0.7893626093864441
      y: -1.7211178541183472
      z: -0.006484846118837595
    orientation:
      x: -0.013162247725093421
      y: 0.008162681323573697
      z: -0.038224333261569626
      w: 0.9991491542556208
- header:
    stamp:
      sec: 1509348811
      nanosec: 672801000
    frame_id: map
  pose:
    position:
      x: -1.024466872215271
      y: -1.6724268198013306
      z: 0.10998120158910751
    orientation:
      x: -0.024224750056970716
      y: 0.014584046478271747
      z: -0.0405000649858324
      w: 0.9987793565524915
- header:
    stamp:
      sec: 1509348811
      nanosec: 772850000
    frame_id: map
  pose:
    position:
      x: -0.7595919370651245
      y: -1.4140671491622925
      z: 0.050435397773981094
    orientation:
      x: -0.03995224615301864
      y: 0.0035000344825828313
      z: -0.02229092141098939
      w: 0.9989467751779395
- header:
    stamp:
      sec: 1509348811
      nanosec: 872896000
    frame_id: map
  pose:
    position:
      x: -0.7961295247077942
      y: -1.3277673721313477
      z: 0.02862478792667389
    orientation:
      x: -0.05116536551127964
      y: 0.004468650134294575
      z: -0.029873530565943426
      w: 0.998233277593268
- header:
    stamp:
      sec: 1509348812
      nanosec: 173300000
    frame_id: map
  pose:
    position:
      x: -0.778630793094635
      y: -0.8969044089317322
      z: 0.03402383625507355
    orientation:
      x: -0.03658928729199323
      y: 0.0036649315857382224
      z: -0.05305421589732277
      w: 0.9979143446627834
- header:
    stamp:
      sec: 1509348812
      nanosec: 373351000
    frame_id: map
  pose:
    position:
      x: -0.6774622201919556
      y: -0.5525232553482056
      z: 0.02432415448129177
    orientation:
      x: -0.06653420991252984
      y: 0.014967222283328774
      z: -0.05173838312509115
      w: 0.9963294255318383
---
header:
  stamp:
    sec: 0
    nanosec: 0
  frame_id: map
poses:
- header:
    stamp:
      sec: 1598439871
      nanosec: 648255892
    frame_id: map
  pose:
    position:
      x: 0.0
      y: 0.0
      z: 0.0
    orientation:
      x: 0.0
      y: 0.0
      z: 0.0
      w: 1.0
- header:
    stamp:
      sec: 1509348797
      nanosec: 460626000
    frame_id: map
  pose:
    position:
      x: -0.003926868550479412
      y: 0.0004364049236755818
      z: -0.007254404481500387
    orientation:
      x: 0.000281525874766628
      y: 0.0009605835576612388
      z: -3.90305972289151e-06
      w: 0.9999994933603911
- header:
    stamp:
      sec: 1509348797
      nanosec: 560689000
    frame_id: map
  pose:
    position:
      x: 0.01081092655658722
      y: 0.021282223984599113
      z: -0.00786131527274847
    orientation:
      x: -0.0024299940079300707
      y: 0.002961928307396469
      z: -0.000372004016010919
      w: 0.9999925940954629
- header:
    stamp:
      sec: 1509348810
      nanosec: 872114000
    frame_id: map
  pose:
    position:
      x: -0.14239881932735443
      y: 0.0063366033136844635
      z: -0.10315520316362381
    orientation:
      x: -0.051223600199866035
      y: -0.015379874620218337
      z: 0.0036586986956315816
      w: 0.9985620620945285
- header:
    stamp:
      sec: 1509348810
      nanosec: 972192000
    frame_id: map
  pose:
    position:
      x: -0.1351904273033142
      y: -1.0619654655456543
      z: -0.09880998730659485
    orientation:
      x: -0.029009982863402145
      y: -0.027563470089825442
      z: 0.0012345373385950265
      w: 0.9991982494455355
- header:
    stamp:
      sec: 1509348811
      nanosec: 72261000
    frame_id: map
  pose:
    position:
      x: -0.2209320217370987
      y: -1.2300878763198853
      z: 0.017038779333233833
    orientation:
      x: -0.022692479697855355
      y: -0.03189442719894732
      z: -0.016304049488783875
      w: 0.9991005637489067
- header:
    stamp:
      sec: 1509348811
      nanosec: 172387000
    frame_id: map
  pose:
    position:
      x: -0.38376584649086
      y: -0.32145553827285767
      z: 0.017964337021112442
    orientation:
      x: -0.03065115848173916
      y: -0.028021385589277536
      z: -0.0125364924158127
      w: 0.9990586305387638
- header:
    stamp:
      sec: 1509348811
      nanosec: 572716000
    frame_id: map
  pose:
    position:
      x: -0.7893626093864441
      y: -1.7211178541183472
      z: -0.006484846118837595
    orientation:
      x: -0.013162247725093421
      y: 0.008162681323573697
      z: -0.038224333261569626
      w: 0.9991491542556208
- header:
    stamp:
      sec: 1509348811
      nanosec: 672801000
    frame_id: map
  pose:
    position:
      x: -1.024466872215271
      y: -1.6724268198013306
      z: 0.10998120158910751
    orientation:
      x: -0.024224750056970716
      y: 0.014584046478271747
      z: -0.0405000649858324
      w: 0.9987793565524915
- header:
    stamp:
      sec: 1509348811
      nanosec: 772850000
    frame_id: map
  pose:
    position:
      x: -0.7595919370651245
      y: -1.4140671491622925
      z: 0.050435397773981094
    orientation:
      x: -0.03995224615301864
      y: 0.0035000344825828313
      z: -0.02229092141098939
      w: 0.9989467751779395
- header:
    stamp:
      sec: 1509348811
      nanosec: 872896000
    frame_id: map
  pose:
    position:
      x: -0.7961295247077942
      y: -1.3277673721313477
      z: 0.02862478792667389
    orientation:
      x: -0.05116536551127964
      y: 0.004468650134294575
      z: -0.029873530565943426
      w: 0.998233277593268
- header:
    stamp:
      sec: 1509348812
      nanosec: 173300000
    frame_id: map
  pose:
    position:
      x: -0.778630793094635
      y: -0.8969044089317322
      z: 0.03402383625507355
    orientation:
      x: -0.03658928729199323
      y: 0.0036649315857382224
      z: -0.05305421589732277
      w: 0.9979143446627834
- header:
    stamp:
      sec: 1509348812
      nanosec: 373351000
    frame_id: map
  pose:
    position:
      x: -0.6774622201919556
      y: -0.5525232553482056
      z: 0.02432415448129177
    orientation:
      x: -0.06653420991252984
      y: 0.014967222283328774
      z: -0.05173838312509115
      w: 0.9963294255318383
- header:
    stamp:
      sec: 1509348812
      nanosec: 473521000
    frame_id: map
  pose:
    position:
      x: -0.6934378743171692
      y: -0.426982045173645
      z: -0.0418972447514534
    orientation:
      x: -0.07363760330835814
      y: 0.01872676650988553
      z: -0.05048021648008028
      w: 0.9958305834023295
---
header:
  stamp:
    sec: 0
    nanosec: 0
  frame_id: map
poses:
- header:
    stamp:
      sec: 1598439871
      nanosec: 648255892
    frame_id: map
  pose:
    position:
      x: 0.0
      y: 0.0
      z: 0.0
    orientation:
      x: 0.0
      y: 0.0
      z: 0.0
      w: 1.0
- header:
    stamp:
      sec: 1509348797
      nanosec: 460626000
    frame_id: map
  pose:
    position:
      x: -0.003926868550479412
      y: 0.0004364049236755818
      z: -0.007254404481500387
    orientation:
      x: 0.000281525874766628
      y: 0.0009605835576612388
      z: -3.90305972289151e-06
      w: 0.9999994933603911
- header:
    stamp:
      sec: 1509348797
      nanosec: 560689000
    frame_id: map
  pose:
    position:
      x: 0.01081092655658722
      y: 0.021282223984599113
      z: -0.00786131527274847
    orientation:
      x: -0.0024299940079300707
      y: 0.002961928307396469
      z: -0.000372004016010919
      w: 0.9999925940954629
- header:
    stamp:
      sec: 1509348810
      nanosec: 872114000
    frame_id: map
  pose:
    position:
      x: -0.14239881932735443
      y: 0.0063366033136844635
      z: -0.10315520316362381
    orientation:
      x: -0.051223600199866035
      y: -0.015379874620218337
      z: 0.0036586986956315816
      w: 0.9985620620945285
- header:
    stamp:
      sec: 1509348810
      nanosec: 972192000
    frame_id: map
  pose:
    position:
      x: -0.1351904273033142
      y: -1.0619654655456543
      z: -0.09880998730659485
    orientation:
      x: -0.029009982863402145
      y: -0.027563470089825442
      z: 0.0012345373385950265
      w: 0.9991982494455355
- header:
    stamp:
      sec: 1509348811
      nanosec: 72261000
    frame_id: map
  pose:
    position:
      x: -0.2209320217370987
      y: -1.2300878763198853
      z: 0.017038779333233833
    orientation:
      x: -0.022692479697855355
      y: -0.03189442719894732
      z: -0.016304049488783875
      w: 0.9991005637489067
- header:
    stamp:
      sec: 1509348811
      nanosec: 172387000
    frame_id: map
  pose:
    position:
      x: -0.38376584649086
      y: -0.32145553827285767
      z: 0.017964337021112442
    orientation:
      x: -0.03065115848173916
      y: -0.028021385589277536
      z: -0.0125364924158127
      w: 0.9990586305387638
- header:
    stamp:
      sec: 1509348811
      nanosec: 572716000
    frame_id: map
  pose:
    position:
      x: -0.7893626093864441
      y: -1.7211178541183472
      z: -0.006484846118837595
    orientation:
      x: -0.013162247725093421
      y: 0.008162681323573697
      z: -0.038224333261569626
      w: 0.9991491542556208
- header:
    stamp:
      sec: 1509348811
      nanosec: 672801000
    frame_id: map
  pose:
    position:
      x: -1.024466872215271
      y: -1.6724268198013306
      z: 0.10998120158910751
    orientation:
      x: -0.024224750056970716
      y: 0.014584046478271747
      z: -0.0405000649858324
      w: 0.9987793565524915
- header:
    stamp:
      sec: 1509348811
      nanosec: 772850000
    frame_id: map
  pose:
    position:
      x: -0.7595919370651245
      y: -1.4140671491622925
      z: 0.050435397773981094
    orientation:
      x: -0.03995224615301864
      y: 0.0035000344825828313
      z: -0.02229092141098939
      w: 0.9989467751779395
- header:
    stamp:
      sec: 1509348811
      nanosec: 872896000
    frame_id: map
  pose:
    position:
      x: -0.7961295247077942
      y: -1.3277673721313477
      z: 0.02862478792667389
    orientation:
      x: -0.05116536551127964
      y: 0.004468650134294575
      z: -0.029873530565943426
      w: 0.998233277593268
- header:
    stamp:
      sec: 1509348812
      nanosec: 173300000
    frame_id: map
  pose:
    position:
      x: -0.778630793094635
      y: -0.8969044089317322
      z: 0.03402383625507355
    orientation:
      x: -0.03658928729199323
      y: 0.0036649315857382224
      z: -0.05305421589732277
      w: 0.9979143446627834
- header:
    stamp:
      sec: 1509348812
      nanosec: 373351000
    frame_id: map
  pose:
    position:
      x: -0.6774622201919556
      y: -0.5525232553482056
      z: 0.02432415448129177
    orientation:
      x: -0.06653420991252984
      y: 0.014967222283328774
      z: -0.05173838312509115
      w: 0.9963294255318383
- header:
    stamp:
      sec: 1509348812
      nanosec: 473521000
    frame_id: map
  pose:
    position:
      x: -0.6934378743171692
      y: -0.426982045173645
      z: -0.0418972447514534
    orientation:
      x: -0.07363760330835814
      y: 0.01872676650988553
      z: -0.05048021648008028
      w: 0.9958305834023295
- header:
    stamp:
      sec: 1509348812
      nanosec: 573576000
    frame_id: map
  pose:
    position:
      x: -0.6673204302787781
      y: -0.3043254017829895
      z: -0.09622460603713989
    orientation:
      x: -0.061012948501394416
      y: 0.022278850672908523
      z: -0.05639643324725454
      w: 0.9962933807787988
---
header:
  stamp:
    sec: 0
    nanosec: 0
  frame_id: map
poses:
- header:
    stamp:
      sec: 1598439871
      nanosec: 648255892
    frame_id: map
  pose:
    position:
      x: 0.0
      y: 0.0
      z: 0.0
    orientation:
      x: 0.0
      y: 0.0
      z: 0.0
      w: 1.0
- header:
    stamp:
      sec: 1509348797
      nanosec: 460626000
    frame_id: map
  pose:
    position:
      x: -0.003926868550479412
      y: 0.0004364049236755818
      z: -0.007254404481500387
    orientation:
      x: 0.000281525874766628
      y: 0.0009605835576612388
      z: -3.90305972289151e-06
      w: 0.9999994933603911
- header:
    stamp:
      sec: 1509348797
      nanosec: 560689000
    frame_id: map
  pose:
    position:
      x: 0.01081092655658722
      y: 0.021282223984599113
      z: -0.00786131527274847
    orientation:
      x: -0.0024299940079300707
      y: 0.002961928307396469
      z: -0.000372004016010919
      w: 0.9999925940954629
- header:
    stamp:
      sec: 1509348810
      nanosec: 872114000
    frame_id: map
  pose:
    position:
      x: -0.14239881932735443
      y: 0.0063366033136844635
      z: -0.10315520316362381
    orientation:
      x: -0.051223600199866035
      y: -0.015379874620218337
      z: 0.0036586986956315816
      w: 0.9985620620945285
- header:
    stamp:
      sec: 1509348810
      nanosec: 972192000
    frame_id: map
  pose:
    position:
      x: -0.1351904273033142
      y: -1.0619654655456543
      z: -0.09880998730659485
    orientation:
      x: -0.029009982863402145
      y: -0.027563470089825442
      z: 0.0012345373385950265
      w: 0.9991982494455355
- header:
    stamp:
      sec: 1509348811
      nanosec: 72261000
    frame_id: map
  pose:
    position:
      x: -0.2209320217370987
      y: -1.2300878763198853
      z: 0.017038779333233833
    orientation:
      x: -0.022692479697855355
      y: -0.03189442719894732
      z: -0.016304049488783875
      w: 0.9991005637489067
- header:
    stamp:
      sec: 1509348811
      nanosec: 172387000
    frame_id: map
  pose:
    position:
      x: -0.38376584649086
      y: -0.32145553827285767
      z: 0.017964337021112442
    orientation:
      x: -0.03065115848173916
      y: -0.028021385589277536
      z: -0.0125364924158127
      w: 0.9990586305387638
- header:
    stamp:
      sec: 1509348811
      nanosec: 572716000
    frame_id: map
  pose:
    position:
      x: -0.7893626093864441
      y: -1.7211178541183472
      z: -0.006484846118837595
    orientation:
      x: -0.013162247725093421
      y: 0.008162681323573697
      z: -0.038224333261569626
      w: 0.9991491542556208
- header:
    stamp:
      sec: 1509348811
      nanosec: 672801000
    frame_id: map
  pose:
    position:
      x: -1.024466872215271
      y: -1.6724268198013306
      z: 0.10998120158910751
    orientation:
      x: -0.024224750056970716
      y: 0.014584046478271747
      z: -0.0405000649858324
      w: 0.9987793565524915
- header:
    stamp:
      sec: 1509348811
      nanosec: 772850000
    frame_id: map
  pose:
    position:
      x: -0.7595919370651245
      y: -1.4140671491622925
      z: 0.050435397773981094
    orientation:
      x: -0.03995224615301864
      y: 0.0035000344825828313
      z: -0.02229092141098939
      w: 0.9989467751779395
- header:
    stamp:
      sec: 1509348811
      nanosec: 872896000
    frame_id: map
  pose:
    position:
      x: -0.7961295247077942
      y: -1.3277673721313477
      z: 0.02862478792667389
    orientation:
      x: -0.05116536551127964
      y: 0.004468650134294575
      z: -0.029873530565943426
      w: 0.998233277593268
- header:
    stamp:
      sec: 1509348812
      nanosec: 173300000
    frame_id: map
  pose:
    position:
      x: -0.778630793094635
      y: -0.8969044089317322
      z: 0.03402383625507355
    orientation:
      x: -0.03658928729199323
      y: 0.0036649315857382224
      z: -0.05305421589732277
      w: 0.9979143446627834
- header:
    stamp:
      sec: 1509348812
      nanosec: 373351000
    frame_id: map
  pose:
    position:
      x: -0.6774622201919556
      y: -0.5525232553482056
      z: 0.02432415448129177
    orientation:
      x: -0.06653420991252984
      y: 0.014967222283328774
      z: -0.05173838312509115
      w: 0.9963294255318383
- header:
    stamp:
      sec: 1509348812
      nanosec: 473521000
    frame_id: map
  pose:
    position:
      x: -0.6934378743171692
      y: -0.426982045173645
      z: -0.0418972447514534
    orientation:
      x: -0.07363760330835814
      y: 0.01872676650988553
      z: -0.05048021648008028
      w: 0.9958305834023295
- header:
    stamp:
      sec: 1509348812
      nanosec: 573576000
    frame_id: map
  pose:
    position:
      x: -0.6673204302787781
      y: -0.3043254017829895
      z: -0.09622460603713989
    orientation:
      x: -0.061012948501394416
      y: 0.022278850672908523
      z: -0.05639643324725454
      w: 0.9962933807787988
- header:
    stamp:
      sec: 1509348814
      nanosec: 74803000
    frame_id: map
  pose:
    position:
      x: -0.547458291053772
      y: 1.7268766164779663
      z: -0.0770174041390419
    orientation:
      x: -0.0530862187163591
      y: -0.019677125518612396
      z: -0.07587162652665609
      w: 0.9955089947036929
---
header:
  stamp:
    sec: 0
    nanosec: 0
  frame_id: map
poses:
- header:
    stamp:
      sec: 1598439871
      nanosec: 648255892
    frame_id: map
  pose:
    position:
      x: 0.0
      y: 0.0
      z: 0.0
    orientation:
      x: 0.0
      y: 0.0
      z: 0.0
      w: 1.0
- header:
    stamp:
      sec: 1509348797
      nanosec: 460626000
    frame_id: map
  pose:
    position:
      x: -0.003926868550479412
      y: 0.0004364049236755818
      z: -0.007254404481500387
    orientation:
      x: 0.000281525874766628
      y: 0.0009605835576612388
      z: -3.90305972289151e-06
      w: 0.9999994933603911
- header:
    stamp:
      sec: 1509348797
      nanosec: 560689000
    frame_id: map
  pose:
    position:
      x: 0.01081092655658722
      y: 0.021282223984599113
      z: -0.00786131527274847
    orientation:
      x: -0.0024299940079300707
      y: 0.002961928307396469
      z: -0.000372004016010919
      w: 0.9999925940954629
- header:
    stamp:
      sec: 1509348810
      nanosec: 872114000
    frame_id: map
  pose:
    position:
      x: -0.14239881932735443
      y: 0.0063366033136844635
      z: -0.10315520316362381
    orientation:
      x: -0.051223600199866035
      y: -0.015379874620218337
      z: 0.0036586986956315816
      w: 0.9985620620945285
- header:
    stamp:
      sec: 1509348810
      nanosec: 972192000
    frame_id: map
  pose:
    position:
      x: -0.1351904273033142
      y: -1.0619654655456543
      z: -0.09880998730659485
    orientation:
      x: -0.029009982863402145
      y: -0.027563470089825442
      z: 0.0012345373385950265
      w: 0.9991982494455355
- header:
    stamp:
      sec: 1509348811
      nanosec: 72261000
    frame_id: map
  pose:
    position:
      x: -0.2209320217370987
      y: -1.2300878763198853
      z: 0.017038779333233833
    orientation:
      x: -0.022692479697855355
      y: -0.03189442719894732
      z: -0.016304049488783875
      w: 0.9991005637489067
- header:
    stamp:
      sec: 1509348811
      nanosec: 172387000
    frame_id: map
  pose:
    position:
      x: -0.38376584649086
      y: -0.32145553827285767
      z: 0.017964337021112442
    orientation:
      x: -0.03065115848173916
      y: -0.028021385589277536
      z: -0.0125364924158127
      w: 0.9990586305387638
- header:
    stamp:
      sec: 1509348811
      nanosec: 572716000
    frame_id: map
  pose:
    position:
      x: -0.7893626093864441
      y: -1.7211178541183472
      z: -0.006484846118837595
    orientation:
      x: -0.013162247725093421
      y: 0.008162681323573697
      z: -0.038224333261569626
      w: 0.9991491542556208
- header:
    stamp:
      sec: 1509348811
      nanosec: 672801000
    frame_id: map
  pose:
    position:
      x: -1.024466872215271
      y: -1.6724268198013306
      z: 0.10998120158910751
    orientation:
      x: -0.024224750056970716
      y: 0.014584046478271747
      z: -0.0405000649858324
      w: 0.9987793565524915
- header:
    stamp:
      sec: 1509348811
      nanosec: 772850000
    frame_id: map
  pose:
    position:
      x: -0.7595919370651245
      y: -1.4140671491622925
      z: 0.050435397773981094
    orientation:
      x: -0.03995224615301864
      y: 0.0035000344825828313
      z: -0.02229092141098939
      w: 0.9989467751779395
- header:
    stamp:
      sec: 1509348811
      nanosec: 872896000
    frame_id: map
  pose:
    position:
      x: -0.7961295247077942
      y: -1.3277673721313477
      z: 0.02862478792667389
    orientation:
      x: -0.05116536551127964
      y: 0.004468650134294575
      z: -0.029873530565943426
      w: 0.998233277593268
- header:
    stamp:
      sec: 1509348812
      nanosec: 173300000
    frame_id: map
  pose:
    position:
      x: -0.778630793094635
      y: -0.8969044089317322
      z: 0.03402383625507355
    orientation:
      x: -0.03658928729199323
      y: 0.0036649315857382224
      z: -0.05305421589732277
      w: 0.9979143446627834
- header:
    stamp:
      sec: 1509348812
      nanosec: 373351000
    frame_id: map
  pose:
    position:
      x: -0.6774622201919556
      y: -0.5525232553482056
      z: 0.02432415448129177
    orientation:
      x: -0.06653420991252984
      y: 0.014967222283328774
      z: -0.05173838312509115
      w: 0.9963294255318383
- header:
    stamp:
      sec: 1509348812
      nanosec: 473521000
    frame_id: map
  pose:
    position:
      x: -0.6934378743171692
      y: -0.426982045173645
      z: -0.0418972447514534
    orientation:
      x: -0.07363760330835814
      y: 0.01872676650988553
      z: -0.05048021648008028
      w: 0.9958305834023295
- header:
    stamp:
      sec: 1509348812
      nanosec: 573576000
    frame_id: map
  pose:
    position:
      x: -0.6673204302787781
      y: -0.3043254017829895
      z: -0.09622460603713989
    orientation:
      x: -0.061012948501394416
      y: 0.022278850672908523
      z: -0.05639643324725454
      w: 0.9962933807787988
- header:
    stamp:
      sec: 1509348814
      nanosec: 74803000
    frame_id: map
  pose:
    position:
      x: -0.547458291053772
      y: 1.7268766164779663
      z: -0.0770174041390419
    orientation:
      x: -0.0530862187163591
      y: -0.019677125518612396
      z: -0.07587162652665609
      w: 0.9955089947036929
- header:
    stamp:
      sec: 1509348814
      nanosec: 174903000
    frame_id: map
  pose:
    position:
      x: -0.5457077622413635
      y: 1.8615310192108154
      z: -0.15625451505184174
    orientation:
      x: -0.04134001784010266
      y: -0.036219799766757044
      z: -0.0867590351362601
      w: 0.9947120058742409
---
header:
  stamp:
    sec: 0
    nanosec: 0
  frame_id: map
poses:
- header:
    stamp:
      sec: 1598439871
      nanosec: 648255892
    frame_id: map
  pose:
    position:
      x: 0.0
      y: 0.0
      z: 0.0
    orientation:
      x: 0.0
      y: 0.0
      z: 0.0
      w: 1.0
- header:
    stamp:
      sec: 1509348797
      nanosec: 460626000
    frame_id: map
  pose:
    position:
      x: -0.003926868550479412
      y: 0.0004364049236755818
      z: -0.007254404481500387
    orientation:
      x: 0.000281525874766628
      y: 0.0009605835576612388
      z: -3.90305972289151e-06
      w: 0.9999994933603911
- header:
    stamp:
      sec: 1509348797
      nanosec: 560689000
    frame_id: map
  pose:
    position:
      x: 0.01081092655658722
      y: 0.021282223984599113
      z: -0.00786131527274847
    orientation:
      x: -0.0024299940079300707
      y: 0.002961928307396469
      z: -0.000372004016010919
      w: 0.9999925940954629
- header:
    stamp:
      sec: 1509348810
      nanosec: 872114000
    frame_id: map
  pose:
    position:
      x: -0.14239881932735443
      y: 0.0063366033136844635
      z: -0.10315520316362381
    orientation:
      x: -0.051223600199866035
      y: -0.015379874620218337
      z: 0.0036586986956315816
      w: 0.9985620620945285
- header:
    stamp:
      sec: 1509348810
      nanosec: 972192000
    frame_id: map
  pose:
    position:
      x: -0.1351904273033142
      y: -1.0619654655456543
      z: -0.09880998730659485
    orientation:
      x: -0.029009982863402145
      y: -0.027563470089825442
      z: 0.0012345373385950265
      w: 0.9991982494455355
- header:
    stamp:
      sec: 1509348811
      nanosec: 72261000
    frame_id: map
  pose:
    position:
      x: -0.2209320217370987
      y: -1.2300878763198853
      z: 0.017038779333233833
    orientation:
      x: -0.022692479697855355
      y: -0.03189442719894732
      z: -0.016304049488783875
      w: 0.9991005637489067
- header:
    stamp:
      sec: 1509348811
      nanosec: 172387000
    frame_id: map
  pose:
    position:
      x: -0.38376584649086
      y: -0.32145553827285767
      z: 0.017964337021112442
    orientation:
      x: -0.03065115848173916
      y: -0.028021385589277536
      z: -0.0125364924158127
      w: 0.9990586305387638
- header:
    stamp:
      sec: 1509348811
      nanosec: 572716000
    frame_id: map
  pose:
    position:
      x: -0.7893626093864441
      y: -1.7211178541183472
      z: -0.006484846118837595
    orientation:
      x: -0.013162247725093421
      y: 0.008162681323573697
      z: -0.038224333261569626
      w: 0.9991491542556208
- header:
    stamp:
      sec: 1509348811
      nanosec: 672801000
    frame_id: map
  pose:
    position:
      x: -1.024466872215271
      y: -1.6724268198013306
      z: 0.10998120158910751
    orientation:
      x: -0.024224750056970716
      y: 0.014584046478271747
      z: -0.0405000649858324
      w: 0.9987793565524915
- header:
    stamp:
      sec: 1509348811
      nanosec: 772850000
    frame_id: map
  pose:
    position:
      x: -0.7595919370651245
      y: -1.4140671491622925
      z: 0.050435397773981094
    orientation:
      x: -0.03995224615301864
      y: 0.0035000344825828313
      z: -0.02229092141098939
      w: 0.9989467751779395
- header:
    stamp:
      sec: 1509348811
      nanosec: 872896000
    frame_id: map
  pose:
    position:
      x: -0.7961295247077942
      y: -1.3277673721313477
      z: 0.02862478792667389
    orientation:
      x: -0.05116536551127964
      y: 0.004468650134294575
      z: -0.029873530565943426
      w: 0.998233277593268
- header:
    stamp:
      sec: 1509348812
      nanosec: 173300000
    frame_id: map
  pose:
    position:
      x: -0.778630793094635
      y: -0.8969044089317322
      z: 0.03402383625507355
    orientation:
      x: -0.03658928729199323
      y: 0.0036649315857382224
      z: -0.05305421589732277
      w: 0.9979143446627834
- header:
    stamp:
      sec: 1509348812
      nanosec: 373351000
    frame_id: map
  pose:
    position:
      x: -0.6774622201919556
      y: -0.5525232553482056
      z: 0.02432415448129177
    orientation:
      x: -0.06653420991252984
      y: 0.014967222283328774
      z: -0.05173838312509115
      w: 0.9963294255318383
- header:
    stamp:
      sec: 1509348812
      nanosec: 473521000
    frame_id: map
  pose:
    position:
      x: -0.6934378743171692
      y: -0.426982045173645
      z: -0.0418972447514534
    orientation:
      x: -0.07363760330835814
      y: 0.01872676650988553
      z: -0.05048021648008028
      w: 0.9958305834023295
- header:
    stamp:
      sec: 1509348812
      nanosec: 573576000
    frame_id: map
  pose:
    position:
      x: -0.6673204302787781
      y: -0.3043254017829895
      z: -0.09622460603713989
    orientation:
      x: -0.061012948501394416
      y: 0.022278850672908523
      z: -0.05639643324725454
      w: 0.9962933807787988
- header:
    stamp:
      sec: 1509348814
      nanosec: 74803000
    frame_id: map
  pose:
    position:
      x: -0.547458291053772
      y: 1.7268766164779663
      z: -0.0770174041390419
    orientation:
      x: -0.0530862187163591
      y: -0.019677125518612396
      z: -0.07587162652665609
      w: 0.9955089947036929
- header:
    stamp:
      sec: 1509348814
      nanosec: 174903000
    frame_id: map
  pose:
    position:
      x: -0.5457077622413635
      y: 1.8615310192108154
      z: -0.15625451505184174
    orientation:
      x: -0.04134001784010266
      y: -0.036219799766757044
      z: -0.0867590351362601
      w: 0.9947120058742409
- header:
    stamp:
      sec: 1509348817
      nanosec: 277561000
    frame_id: map
  pose:
    position:
      x: -0.7641366124153137
      y: 4.507784366607666
      z: -0.08343996107578278
    orientation:
      x: -0.06051208397858166
      y: 0.012573622552290305
      z: -0.18491988702014284
      w: 0.9808082524706394
---
header:
  stamp:
    sec: 0
    nanosec: 0
  frame_id: map
poses:
- header:
    stamp:
      sec: 1598439871
      nanosec: 648255892
    frame_id: map
  pose:
    position:
      x: 0.0
      y: 0.0
      z: 0.0
    orientation:
      x: 0.0
      y: 0.0
      z: 0.0
      w: 1.0
- header:
    stamp:
      sec: 1509348797
      nanosec: 460626000
    frame_id: map
  pose:
    position:
      x: -0.003926868550479412
      y: 0.0004364049236755818
      z: -0.007254404481500387
    orientation:
      x: 0.000281525874766628
      y: 0.0009605835576612388
      z: -3.90305972289151e-06
      w: 0.9999994933603911
- header:
    stamp:
      sec: 1509348797
      nanosec: 560689000
    frame_id: map
  pose:
    position:
      x: 0.01081092655658722
      y: 0.021282223984599113
      z: -0.00786131527274847
    orientation:
      x: -0.0024299940079300707
      y: 0.002961928307396469
      z: -0.000372004016010919
      w: 0.9999925940954629
- header:
    stamp:
      sec: 1509348810
      nanosec: 872114000
    frame_id: map
  pose:
    position:
      x: -0.14239881932735443
      y: 0.0063366033136844635
      z: -0.10315520316362381
    orientation:
      x: -0.051223600199866035
      y: -0.015379874620218337
      z: 0.0036586986956315816
      w: 0.9985620620945285
- header:
    stamp:
      sec: 1509348810
      nanosec: 972192000
    frame_id: map
  pose:
    position:
      x: -0.1351904273033142
      y: -1.0619654655456543
      z: -0.09880998730659485
    orientation:
      x: -0.029009982863402145
      y: -0.027563470089825442
      z: 0.0012345373385950265
      w: 0.9991982494455355
- header:
    stamp:
      sec: 1509348811
      nanosec: 72261000
    frame_id: map
  pose:
    position:
      x: -0.2209320217370987
      y: -1.2300878763198853
      z: 0.017038779333233833
    orientation:
      x: -0.022692479697855355
      y: -0.03189442719894732
      z: -0.016304049488783875
      w: 0.9991005637489067
- header:
    stamp:
      sec: 1509348811
      nanosec: 172387000
    frame_id: map
  pose:
    position:
      x: -0.38376584649086
      y: -0.32145553827285767
      z: 0.017964337021112442
    orientation:
      x: -0.03065115848173916
      y: -0.028021385589277536
      z: -0.0125364924158127
      w: 0.9990586305387638
- header:
    stamp:
      sec: 1509348811
      nanosec: 572716000
    frame_id: map
  pose:
    position:
      x: -0.7893626093864441
      y: -1.7211178541183472
      z: -0.006484846118837595
    orientation:
      x: -0.013162247725093421
      y: 0.008162681323573697
      z: -0.038224333261569626
      w: 0.9991491542556208
- header:
    stamp:
      sec: 1509348811
      nanosec: 672801000
    frame_id: map
  pose:
    position:
      x: -1.024466872215271
      y: -1.6724268198013306
      z: 0.10998120158910751
    orientation:
      x: -0.024224750056970716
      y: 0.014584046478271747
      z: -0.0405000649858324
      w: 0.9987793565524915
- header:
    stamp:
      sec: 1509348811
      nanosec: 772850000
    frame_id: map
  pose:
    position:
      x: -0.7595919370651245
      y: -1.4140671491622925
      z: 0.050435397773981094
    orientation:
      x: -0.03995224615301864
      y: 0.0035000344825828313
      z: -0.02229092141098939
      w: 0.9989467751779395
- header:
    stamp:
      sec: 1509348811
      nanosec: 872896000
    frame_id: map
  pose:
    position:
      x: -0.7961295247077942
      y: -1.3277673721313477
      z: 0.02862478792667389
    orientation:
      x: -0.05116536551127964
      y: 0.004468650134294575
      z: -0.029873530565943426
      w: 0.998233277593268
- header:
    stamp:
      sec: 1509348812
      nanosec: 173300000
    frame_id: map
  pose:
    position:
      x: -0.778630793094635
      y: -0.8969044089317322
      z: 0.03402383625507355
    orientation:
      x: -0.03658928729199323
      y: 0.0036649315857382224
      z: -0.05305421589732277
      w: 0.9979143446627834
- header:
    stamp:
      sec: 1509348812
      nanosec: 373351000
    frame_id: map
  pose:
    position:
      x: -0.6774622201919556
      y: -0.5525232553482056
      z: 0.02432415448129177
    orientation:
      x: -0.06653420991252984
