header:
  stamp:
    sec: 0
    nanosec: 0
  frame_id: map
poses:
- header:
    stamp:
      sec: 1598443455
      nanosec: 575383875
    frame_id: map
  pose:
    position:
      x: 0.0
      y: 0.0
      z: 0.0
    orientation:
      x: 0.0
      y: 0.0
      z: 0.0
      w: 1.0
- header:
    stamp:
      sec: 1503376898
      nanosec: 161835000
    frame_id: map
  pose:
    position:
      x: -0.00020274361304473132
      y: 0.03877759724855423
      z: 0.02998122200369835
    orientation:
      x: 0.002604393084389936
      y: -0.006935056808124707
      z: 0.0037268385963948637
      w: 0.9999656149793804
---
header:
  stamp:
    sec: 0
    nanosec: 0
  frame_id: map
poses:
- header:
    stamp:
      sec: 1598443455
      nanosec: 575383875
    frame_id: map
  pose:
    position:
      x: 0.0
      y: 0.0
      z: 0.0
    orientation:
      x: 0.0
      y: 0.0
      z: 0.0
      w: 1.0
- header:
    stamp:
      sec: 1503376898
      nanosec: 161835000
    frame_id: map
  pose:
    position:
      x: -0.00020274361304473132
      y: 0.03877759724855423
      z: 0.02998122200369835
    orientation:
      x: 0.002604393084389936
      y: -0.006935056808124707
      z: 0.0037268385963948637
      w: 0.9999656149793804
- header:
    stamp:
      sec: 1503376898
      nanosec: 362001000
    frame_id: map
  pose:
    position:
      x: -0.017160948365926743
      y: 0.02519875206053257
      z: 0.012391275726258755
    orientation:
      x: 0.00393222951944377
      y: -0.013984080036087237
      z: 0.012347967127253608
      w: 0.9998182116616768
---
header:
  stamp:
    sec: 0
    nanosec: 0
  frame_id: map
poses:
- header:
    stamp:
      sec: 1598443455
      nanosec: 575383875
    frame_id: map
  pose:
    position:
      x: 0.0
      y: 0.0
      z: 0.0
    orientation:
      x: 0.0
      y: 0.0
      z: 0.0
      w: 1.0
- header:
    stamp:
      sec: 1503376898
      nanosec: 161835000
    frame_id: map
  pose:
    position:
      x: -0.00020274361304473132
      y: 0.03877759724855423
      z: 0.02998122200369835
    orientation:
      x: 0.002604393084389936
      y: -0.006935056808124707
      z: 0.0037268385963948637
      w: 0.9999656149793804
- header:
    stamp:
      sec: 1503376898
      nanosec: 362001000
    frame_id: map
  pose:
    position:
      x: -0.017160948365926743
      y: 0.02519875206053257
      z: 0.012391275726258755
    orientation:
      x: 0.00393222951944377
      y: -0.013984080036087237
      z: 0.012347967127253608
      w: 0.9998182116616768
- header:
    stamp:
      sec: 1503376907
      nanosec: 469871000
    frame_id: map
  pose:
    position:
      x: -0.8889729380607605
      y: -0.04706188291311264
      z: 0.5294861197471619
    orientation:
      x: 0.04612160645065592
      y: 0.07967870639021012
      z: -0.004923045051833834
      w: 0.9957408653939782
---
header:
  stamp:
    sec: 0
    nanosec: 0
  frame_id: map
poses:
- header:
    stamp:
      sec: 1598443455
      nanosec: 575383875
    frame_id: map
  pose:
    position:
      x: 0.0
      y: 0.0
      z: 0.0
    orientation:
      x: 0.0
      y: 0.0
      z: 0.0
      w: 1.0
- header:
    stamp:
      sec: 1503376898
      nanosec: 161835000
    frame_id: map
  pose:
    position:
      x: -0.00020274361304473132
      y: 0.03877759724855423
      z: 0.02998122200369835
    orientation:
      x: 0.002604393084389936
      y: -0.006935056808124707
      z: 0.0037268385963948637
      w: 0.9999656149793804
- header:
    stamp:
      sec: 1503376898
      nanosec: 362001000
    frame_id: map
  pose:
    position:
      x: -0.017160948365926743
      y: 0.02519875206053257
      z: 0.012391275726258755
    orientation:
      x: 0.00393222951944377
      y: -0.013984080036087237
      z: 0.012347967127253608
      w: 0.9998182116616768
- header:
    stamp:
      sec: 1503376907
      nanosec: 469871000
    frame_id: map
  pose:
    position:
      x: -0.8889729380607605
      y: -0.04706188291311264
      z: 0.5294861197471619
    orientation:
      x: 0.04612160645065592
      y: 0.07967870639021012
      z: -0.004923045051833834
      w: 0.9957408653939782
- header:
    stamp:
      sec: 1503376907
      nanosec: 569903000
    frame_id: map
  pose:
    position:
      x: -0.8970834612846375
      y: -0.06671807914972305
      z: 0.5298551917076111
    orientation:
      x: 0.06915485010816562
      y: 0.078826060487951
      z: 0.0002471401879867061
      w: 0.9944868103311106
---
header:
  stamp:
    sec: 0
    nanosec: 0
  frame_id: map
poses:
- header:
    stamp:
      sec: 1598443455
      nanosec: 575383875
    frame_id: map
  pose:
    position:
      x: 0.0
      y: 0.0
      z: 0.0
    orientation:
      x: 0.0
      y: 0.0
      z: 0.0
      w: 1.0
- header:
    stamp:
      sec: 1503376898
      nanosec: 161835000
    frame_id: map
  pose:
    position:
      x: -0.00020274361304473132
      y: 0.03877759724855423
      z: 0.02998122200369835
    orientation:
      x: 0.002604393084389936
      y: -0.006935056808124707
      z: 0.0037268385963948637
      w: 0.9999656149793804
- header:
    stamp:
      sec: 1503376898
      nanosec: 362001000
    frame_id: map
  pose:
    position:
      x: -0.017160948365926743
      y: 0.02519875206053257
      z: 0.012391275726258755
    orientation:
      x: 0.00393222951944377
      y: -0.013984080036087237
      z: 0.012347967127253608
      w: 0.9998182116616768
- header:
    stamp:
      sec: 1503376907
      nanosec: 469871000
    frame_id: map
  pose:
    position:
      x: -0.8889729380607605
      y: -0.04706188291311264
      z: 0.5294861197471619
    orientation:
      x: 0.04612160645065592
      y: 0.07967870639021012
      z: -0.004923045051833834
      w: 0.9957408653939782
- header:
    stamp:
      sec: 1503376907
      nanosec: 569903000
    frame_id: map
  pose:
    position:
      x: -0.8970834612846375
      y: -0.06671807914972305
      z: 0.5298551917076111
    orientation:
      x: 0.06915485010816562
      y: 0.078826060487951
      z: 0.0002471401879867061
      w: 0.9944868103311106
- header:
    stamp:
      sec: 1503376907
      nanosec: 670012000
    frame_id: map
  pose:
    position:
      x: -0.8912058472633362
      y: 0.03098444454371929
      z: 0.4712192714214325
    orientation:
      x: 0.07502370456198777
      y: 0.07649488245228314
      z: 0.024470725170793375
      w: 0.9939422409480905
---
header:
  stamp:
    sec: 0
    nanosec: 0
  frame_id: map
poses:
- header:
    stamp:
      sec: 1598443455
      nanosec: 575383875
    frame_id: map
  pose:
    position:
      x: 0.0
      y: 0.0
      z: 0.0
    orientation:
      x: 0.0
      y: 0.0
      z: 0.0
      w: 1.0
- header:
    stamp:
      sec: 1503376898
      nanosec: 161835000
    frame_id: map
  pose:
    position:
      x: -0.00020274361304473132
      y: 0.03877759724855423
      z: 0.02998122200369835
    orientation:
      x: 0.002604393084389936
      y: -0.006935056808124707
      z: 0.0037268385963948637
      w: 0.9999656149793804
- header:
    stamp:
      sec: 1503376898
      nanosec: 362001000
    frame_id: map
  pose:
    position:
      x: -0.017160948365926743
      y: 0.02519875206053257
      z: 0.012391275726258755
    orientation:
      x: 0.00393222951944377
      y: -0.013984080036087237
      z: 0.012347967127253608
      w: 0.9998182116616768
- header:
    stamp:
      sec: 1503376907
      nanosec: 469871000
    frame_id: map
  pose:
    position:
      x: -0.8889729380607605
      y: -0.04706188291311264
      z: 0.5294861197471619
    orientation:
      x: 0.04612160645065592
      y: 0.07967870639021012
      z: -0.004923045051833834
      w: 0.9957408653939782
- header:
    stamp:
      sec: 1503376907
      nanosec: 569903000
    frame_id: map
  pose:
    position:
      x: -0.8970834612846375
      y: -0.06671807914972305
      z: 0.5298551917076111
    orientation:
      x: 0.06915485010816562
      y: 0.078826060487951
      z: 0.0002471401879867061
      w: 0.9944868103311106
- header:
    stamp:
      sec: 1503376907
      nanosec: 670012000
    frame_id: map
  pose:
    position:
      x: -0.8912058472633362
      y: 0.03098444454371929
      z: 0.4712192714214325
    orientation:
      x: 0.07502370456198777
      y: 0.07649488245228314
      z: 0.024470725170793375
      w: 0.9939422409480905
- header:
    stamp:
      sec: 1503376907
      nanosec: 770118000
    frame_id: map
  pose:
    position:
      x: -0.9490692615509033
      y: 0.07108333706855774
      z: 0.43216079473495483
    orientation:
      x: 0.07726527940934656
      y: 0.07944177958139809
      z: 0.05205922969316666
      w: 0.9924761359831404
---
header:
  stamp:
    sec: 0
    nanosec: 0
  frame_id: map
poses:
- header:
    stamp:
      sec: 1598443455
      nanosec: 575383875
    frame_id: map
  pose:
    position:
      x: 0.0
      y: 0.0
      z: 0.0
    orientation:
      x: 0.0
      y: 0.0
      z: 0.0
      w: 1.0
- header:
    stamp:
      sec: 1503376898
      nanosec: 161835000
    frame_id: map
  pose:
    position:
      x: -0.00020274361304473132
      y: 0.03877759724855423
      z: 0.02998122200369835
    orientation:
      x: 0.002604393084389936
      y: -0.006935056808124707
      z: 0.0037268385963948637
      w: 0.9999656149793804
- header:
    stamp:
      sec: 1503376898
      nanosec: 362001000
    frame_id: map
  pose:
    position:
      x: -0.017160948365926743
      y: 0.02519875206053257
      z: 0.012391275726258755
    orientation:
      x: 0.00393222951944377
      y: -0.013984080036087237
      z: 0.012347967127253608
      w: 0.9998182116616768
- header:
    stamp:
      sec: 1503376907
      nanosec: 469871000
    frame_id: map
  pose:
    position:
      x: -0.8889729380607605
      y: -0.04706188291311264
      z: 0.5294861197471619
    orientation:
      x: 0.04612160645065592
      y: 0.07967870639021012
      z: -0.004923045051833834
      w: 0.9957408653939782
- header:
    stamp:
      sec: 1503376907
      nanosec: 569903000
    frame_id: map
  pose:
    position:
      x: -0.8970834612846375
      y: -0.06671807914972305
      z: 0.5298551917076111
    orientation:
      x: 0.06915485010816562
      y: 0.078826060487951
      z: 0.0002471401879867061
      w: 0.9944868103311106
- header:
    stamp:
      sec: 1503376907
      nanosec: 670012000
    frame_id: map
  pose:
    position:
      x: -0.8912058472633362
      y: 0.03098444454371929
      z: 0.4712192714214325
    orientation:
      x: 0.07502370456198777
      y: 0.07649488245228314
      z: 0.024470725170793375
      w: 0.9939422409480905
- header:
    stamp:
      sec: 1503376907
      nanosec: 770118000
    frame_id: map
  pose:
    position:
      x: -0.9490692615509033
      y: 0.07108333706855774
      z: 0.43216079473495483
    orientation:
      x: 0.07726527940934656
      y: 0.07944177958139809
      z: 0.05205922969316666
      w: 0.9924761359831404
- header:
    stamp:
      sec: 1503376907
      nanosec: 870221000
    frame_id: map
  pose:
    position:
      x: -0.9084222912788391
      y: 0.13219445943832397
      z: 0.4551522731781006
    orientation:
      x: 0.07354472348589396
      y: 0.057677091839991104
      z: 0.07254209013823729
      w: 0.9929764306876608
---
header:
  stamp:
    sec: 0
    nanosec: 0
  frame_id: map
poses:
- header:
    stamp:
      sec: 1598443455
      nanosec: 575383875
    frame_id: map
  pose:
    position:
      x: 0.0
      y: 0.0
      z: 0.0
    orientation:
      x: 0.0
      y: 0.0
      z: 0.0
      w: 1.0
- header:
    stamp:
      sec: 1503376898
      nanosec: 161835000
    frame_id: map
  pose:
    position:
      x: -0.00020274361304473132
      y: 0.03877759724855423
      z: 0.02998122200369835
    orientation:
      x: 0.002604393084389936
      y: -0.006935056808124707
      z: 0.0037268385963948637
      w: 0.9999656149793804
- header:
    stamp:
      sec: 1503376898
      nanosec: 362001000
    frame_id: map
  pose:
    position:
      x: -0.017160948365926743
      y: 0.02519875206053257
      z: 0.012391275726258755
    orientation:
      x: 0.00393222951944377
      y: -0.013984080036087237
      z: 0.012347967127253608
      w: 0.9998182116616768
- header:
    stamp:
      sec: 1503376907
      nanosec: 469871000
    frame_id: map
  pose:
    position:
      x: -0.8889729380607605
      y: -0.04706188291311264
      z: 0.5294861197471619
    orientation:
      x: 0.04612160645065592
      y: 0.07967870639021012
      z: -0.004923045051833834
      w: 0.9957408653939782
- header:
    stamp:
      sec: 1503376907
      nanosec: 569903000
    frame_id: map
  pose:
    position:
      x: -0.8970834612846375
      y: -0.06671807914972305
      z: 0.5298551917076111
    orientation:
      x: 0.06915485010816562
      y: 0.078826060487951
      z: 0.0002471401879867061
      w: 0.9944868103311106
- header:
    stamp:
      sec: 1503376907
      nanosec: 670012000
    frame_id: map
  pose:
    position:
      x: -0.8912058472633362
      y: 0.03098444454371929
      z: 0.4712192714214325
    orientation:
      x: 0.07502370456198777
      y: 0.07649488245228314
      z: 0.024470725170793375
      w: 0.9939422409480905
- header:
    stamp:
      sec: 1503376907
      nanosec: 770118000
    frame_id: map
  pose:
    position:
      x: -0.9490692615509033
      y: 0.07108333706855774
      z: 0.43216079473495483
    orientation:
      x: 0.07726527940934656
      y: 0.07944177958139809
      z: 0.05205922969316666
      w: 0.9924761359831404
- header:
    stamp:
      sec: 1503376907
      nanosec: 870221000
    frame_id: map
  pose:
    position:
      x: -0.9084222912788391
      y: 0.13219445943832397
      z: 0.4551522731781006
    orientation:
      x: 0.07354472348589396
      y: 0.057677091839991104
      z: 0.07254209013823729
      w: 0.9929764306876608
- header:
    stamp:
      sec: 1503376907
      nanosec: 970314000
    frame_id: map
  pose:
    position:
      x: -0.9914449453353882
      y: 0.12814760208129883
      z: 0.3547962009906769
    orientation:
      x: 0.056364087187449605
      y: 0.08258600555544016
      z: 0.08410333665084849
      w: 0.9914278967427796
---
header:
  stamp:
    sec: 0
    nanosec: 0
  frame_id: map
poses:
- header:
    stamp:
      sec: 1598443455
      nanosec: 575383875
    frame_id: map
  pose:
    position:
      x: 0.0
      y: 0.0
      z: 0.0
    orientation:
      x: 0.0
      y: 0.0
      z: 0.0
      w: 1.0
- header:
    stamp:
      sec: 1503376898
      nanosec: 161835000
    frame_id: map
  pose:
    position:
      x: -0.00020274361304473132
      y: 0.03877759724855423
      z: 0.02998122200369835
    orientation:
      x: 0.002604393084389936
      y: -0.006935056808124707
      z: 0.0037268385963948637
      w: 0.9999656149793804
- header:
    stamp:
      sec: 1503376898
      nanosec: 362001000
    frame_id: map
  pose:
    position:
      x: -0.017160948365926743
      y: 0.02519875206053257
      z: 0.012391275726258755
    orientation:
      x: 0.00393222951944377
      y: -0.013984080036087237
      z: 0.012347967127253608
      w: 0.9998182116616768
- header:
    stamp:
      sec: 1503376907
      nanosec: 469871000
    frame_id: map
  pose:
    position:
      x: -0.8889729380607605
      y: -0.04706188291311264
      z: 0.5294861197471619
    orientation:
      x: 0.04612160645065592
      y: 0.07967870639021012
      z: -0.004923045051833834
      w: 0.9957408653939782
- header:
    stamp:
      sec: 1503376907
      nanosec: 569903000
    frame_id: map
  pose:
    position:
      x: -0.8970834612846375
      y: -0.06671807914972305
      z: 0.5298551917076111
    orientation:
      x: 0.06915485010816562
      y: 0.078826060487951
      z: 0.0002471401879867061
      w: 0.9944868103311106
- header:
    stamp:
      sec: 1503376907
      nanosec: 670012000
    frame_id: map
  pose:
    position:
      x: -0.8912058472633362
      y: 0.03098444454371929
      z: 0.4712192714214325
    orientation:
      x: 0.07502370456198777
      y: 0.07649488245228314
      z: 0.024470725170793375
      w: 0.9939422409480905
- header:
    stamp:
      sec: 1503376907
      nanosec: 770118000
    frame_id: map
  pose:
    position:
      x: -0.9490692615509033
      y: 0.07108333706855774
      z: 0.43216079473495483
    orientation:
      x: 0.07726527940934656
      y: 0.07944177958139809
      z: 0.05205922969316666
      w: 0.9924761359831404
- header:
    stamp:
      sec: 1503376907
      nanosec: 870221000
    frame_id: map
  pose:
    position:
      x: -0.9084222912788391
      y: 0.13219445943832397
      z: 0.4551522731781006
    orientation:
      x: 0.07354472348589396
      y: 0.057677091839991104
      z: 0.07254209013823729
      w: 0.9929764306876608
- header:
    stamp:
      sec: 1503376907
      nanosec: 970314000
    frame_id: map
  pose:
    position:
      x: -0.9914449453353882
      y: 0.12814760208129883
      z: 0.3547962009906769
    orientation:
      x: 0.056364087187449605
      y: 0.08258600555544016
      z: 0.08410333665084849
      w: 0.9914278967427796
- header:
    stamp:
      sec: 1503376908
      nanosec: 70486000
    frame_id: map
  pose:
    position:
      x: -1.0046454668045044
      y: 0.1718403548002243
      z: 0.42737022042274475
    orientation:
      x: 0.07451954067127103
      y: 0.070108346079725
      z: 0.08534161246451685
      w: 0.9910844994693179
---
header:
  stamp:
    sec: 0
    nanosec: 0
  frame_id: map
poses:
- header:
    stamp:
      sec: 1598443455
      nanosec: 575383875
    frame_id: map
  pose:
    position:
      x: 0.0
      y: 0.0
      z: 0.0
    orientation:
      x: 0.0
      y: 0.0
      z: 0.0
      w: 1.0
- header:
    stamp:
      sec: 1503376898
      nanosec: 161835000
    frame_id: map
  pose:
    position:
      x: -0.00020274361304473132
      y: 0.03877759724855423
      z: 0.02998122200369835
    orientation:
      x: 0.002604393084389936
      y: -0.006935056808124707
      z: 0.0037268385963948637
      w: 0.9999656149793804
- header:
    stamp:
      sec: 1503376898
      nanosec: 362001000
    frame_id: map
  pose:
    position:
      x: -0.017160948365926743
      y: 0.02519875206053257
      z: 0.012391275726258755
    orientation:
      x: 0.00393222951944377
      y: -0.013984080036087237
      z: 0.012347967127253608
      w: 0.9998182116616768
- header:
    stamp:
      sec: 1503376907
      nanosec: 469871000
    frame_id: map
  pose:
    position:
      x: -0.8889729380607605
      y: -0.04706188291311264
      z: 0.5294861197471619
    orientation:
      x: 0.04612160645065592
      y: 0.07967870639021012
      z: -0.004923045051833834
      w: 0.9957408653939782
- header:
    stamp:
      sec: 1503376907
      nanosec: 569903000
    frame_id: map
  pose:
    position:
      x: -0.8970834612846375
      y: -0.06671807914972305
      z: 0.5298551917076111
    orientation:
      x: 0.06915485010816562
      y: 0.078826060487951
      z: 0.0002471401879867061
      w: 0.9944868103311106
- header:
    stamp:
      sec: 1503376907
      nanosec: 670012000
    frame_id: map
  pose:
    position:
      x: -0.8912058472633362
      y: 0.03098444454371929
      z: 0.4712192714214325
    orientation:
      x: 0.07502370456198777
      y: 0.07649488245228314
      z: 0.024470725170793375
      w: 0.9939422409480905
- header:
    stamp:
      sec: 1503376907
      nanosec: 770118000
    frame_id: map
  pose:
    position:
      x: -0.9490692615509033
      y: 0.07108333706855774
      z: 0.43216079473495483
    orientation:
      x: 0.07726527940934656
      y: 0.07944177958139809
      z: 0.05205922969316666
      w: 0.9924761359831404
- header:
    stamp:
      sec: 1503376907
      nanosec: 870221000
    frame_id: map
  pose:
    position:
      x: -0.9084222912788391
      y: 0.13219445943832397
      z: 0.4551522731781006
    orientation:
      x: 0.07354472348589396
      y: 0.057677091839991104
      z: 0.07254209013823729
      w: 0.9929764306876608
- header:
    stamp:
      sec: 1503376907
      nanosec: 970314000
    frame_id: map
  pose:
    position:
      x: -0.9914449453353882
      y: 0.12814760208129883
      z: 0.3547962009906769
    orientation:
      x: 0.056364087187449605
      y: 0.08258600555544016
      z: 0.08410333665084849
      w: 0.9914278967427796
- header:
    stamp:
      sec: 1503376908
      nanosec: 70486000
    frame_id: map
  pose:
    position:
      x: -1.0046454668045044
      y: 0.1718403548002243
      z: 0.42737022042274475
    orientation:
      x: 0.07451954067127103
      y: 0.070108346079725
      z: 0.08534161246451685
      w: 0.9910844994693179
- header:
    stamp:
      sec: 1503376908
      nanosec: 170543000
    frame_id: map
  pose:
    position:
      x: -0.9588190317153931
      y: 0.19642189145088196
      z: 0.49778634309768677
    orientation:
      x: 0.07399963577264143
      y: 0.06260723432484022
      z: 0.08747409202730445
      w: 0.9914396952225012
---
header:
  stamp:
    sec: 0
    nanosec: 0
  frame_id: map
poses:
- header:
    stamp:
      sec: 1598443455
      nanosec: 575383875
    frame_id: map
  pose:
    position:
      x: 0.0
      y: 0.0
      z: 0.0
    orientation:
      x: 0.0
      y: 0.0
      z: 0.0
      w: 1.0
- header:
    stamp:
      sec: 1503376898
      nanosec: 161835000
    frame_id: map
  pose:
    position:
      x: -0.00020274361304473132
      y: 0.03877759724855423
      z: 0.02998122200369835
    orientation:
      x: 0.002604393084389936
      y: -0.006935056808124707
      z: 0.0037268385963948637
      w: 0.9999656149793804
- header:
    stamp:
      sec: 1503376898
      nanosec: 362001000
    frame_id: map
  pose:
    position:
      x: -0.017160948365926743
      y: 0.02519875206053257
      z: 0.012391275726258755
    orientation:
      x: 0.00393222951944377
      y: -0.013984080036087237
      z: 0.012347967127253608
      w: 0.9998182116616768
- header:
    stamp:
      sec: 1503376907
      nanosec: 469871000
    frame_id: map
  pose:
    position:
      x: -0.8889729380607605
      y: -0.04706188291311264
      z: 0.5294861197471619
    orientation:
      x: 0.04612160645065592
      y: 0.07967870639021012
      z: -0.004923045051833834
      w: 0.9957408653939782
- header:
    stamp:
      sec: 1503376907
      nanosec: 569903000
    frame_id: map
  pose:
    position:
      x: -0.8970834612846375
      y: -0.06671807914972305
      z: 0.5298551917076111
    orientation:
      x: 0.06915485010816562
      y: 0.078826060487951
      z: 0.0002471401879867061
      w: 0.9944868103311106
- header:
    stamp:
      sec: 1503376907
      nanosec: 670012000
    frame_id: map
  pose:
    position:
      x: -0.8912058472633362
      y: 0.03098444454371929
      z: 0.4712192714214325
    orientation:
      x: 0.07502370456198777
      y: 0.07649488245228314
      z: 0.024470725170793375
      w: 0.9939422409480905
- header:
    stamp:
      sec: 1503376907
      nanosec: 770118000
    frame_id: map
  pose:
    position:
      x: -0.9490692615509033
      y: 0.07108333706855774
      z: 0.43216079473495483
    orientation:
      x: 0.07726527940934656
      y: 0.07944177958139809
      z: 0.05205922969316666
      w: 0.9924761359831404
- header:
    stamp:
      sec: 1503376907
      nanosec: 870221000
    frame_id: map
  pose:
    position:
      x: -0.9084222912788391
      y: 0.13219445943832397
      z: 0.4551522731781006
    orientation:
      x: 0.07354472348589396
      y: 0.057677091839991104
      z: 0.07254209013823729
      w: 0.9929764306876608
- header:
    stamp:
      sec: 1503376907
      nanosec: 970314000
    frame_id: map
  pose:
    position:
      x: -0.9914449453353882
      y: 0.12814760208129883
      z: 0.3547962009906769
    orientation:
      x: 0.056364087187449605
      y: 0.08258600555544016
      z: 0.08410333665084849
      w: 0.9914278967427796
- header:
    stamp:
      sec: 1503376908
      nanosec: 70486000
    frame_id: map
  pose:
    position:
      x: -1.0046454668045044
      y: 0.1718403548002243
      z: 0.42737022042274475
    orientation:
      x: 0.07451954067127103
      y: 0.070108346079725
      z: 0.08534161246451685
      w: 0.9910844994693179
- header:
    stamp:
      sec: 1503376908
      nanosec: 170543000
    frame_id: map
  pose:
    position:
      x: -0.9588190317153931
      y: 0.19642189145088196
      z: 0.49778634309768677
    orientation:
      x: 0.07399963577264143
      y: 0.06260723432484022
      z: 0.08747409202730445
      w: 0.9914396952225012
- header:
    stamp:
      sec: 1503376908
      nanosec: 270672000
    frame_id: map
  pose:
    position:
      x: -0.9304327964782715
      y: 0.24529439210891724
      z: 0.5687407851219177
    orientation:
      x: 0.06164265123148741
      y: 0.05734495064835974
      z: 0.09089105868649157
      w: 0.9922956047337698
---
header:
  stamp:
    sec: 0
    nanosec: 0
  frame_id: map
poses:
- header:
    stamp:
      sec: 1598443455
      nanosec: 575383875
    frame_id: map
  pose:
    position:
      x: 0.0
      y: 0.0
      z: 0.0
    orientation:
      x: 0.0
      y: 0.0
      z: 0.0
      w: 1.0
- header:
    stamp:
      sec: 1503376898
      nanosec: 161835000
    frame_id: map
  pose:
    position:
      x: -0.00020274361304473132
      y: 0.03877759724855423
      z: 0.02998122200369835
    orientation:
      x: 0.002604393084389936
      y: -0.006935056808124707
      z: 0.0037268385963948637
      w: 0.9999656149793804
- header:
    stamp:
      sec: 1503376898
      nanosec: 362001000
    frame_id: map
  pose:
    position:
      x: -0.017160948365926743
      y: 0.02519875206053257
      z: 0.012391275726258755
    orientation:
      x: 0.00393222951944377
      y: -0.013984080036087237
      z: 0.012347967127253608
      w: 0.9998182116616768
- header:
    stamp:
      sec: 1503376907
      nanosec: 469871000
    frame_id: map
  pose:
    position:
      x: -0.8889729380607605
      y: -0.04706188291311264
      z: 0.5294861197471619
    orientation:
      x: 0.04612160645065592
      y: 0.07967870639021012
      z: -0.004923045051833834
      w: 0.9957408653939782
- header:
    stamp:
      sec: 1503376907
      nanosec: 569903000
    frame_id: map
  pose:
    position:
      x: -0.8970834612846375
      y: -0.06671807914972305
      z: 0.5298551917076111
    orientation:
      x: 0.06915485010816562
      y: 0.078826060487951
      z: 0.0002471401879867061
      w: 0.9944868103311106
- header:
    stamp:
      sec: 1503376907
      nanosec: 670012000
    frame_id: map
  pose:
    position:
      x: -0.8912058472633362
      y: 0.03098444454371929
      z: 0.4712192714214325
    orientation:
      x: 0.07502370456198777
      y: 0.07649488245228314
      z: 0.024470725170793375
      w: 0.9939422409480905
- header:
    stamp:
      sec: 1503376907
      nanosec: 770118000
    frame_id: map
  pose:
    position:
      x: -0.9490692615509033
      y: 0.07108333706855774
      z: 0.43216079473495483
    orientation:
      x: 0.07726527940934656
      y: 0.07944177958139809
      z: 0.05205922969316666
      w: 0.9924761359831404
- header:
    stamp:
      sec: 1503376907
      nanosec: 870221000
    frame_id: map
  pose:
    position:
      x: -0.9084222912788391
      y: 0.13219445943832397
      z: 0.4551522731781006
    orientation:
      x: 0.07354472348589396
      y: 0.057677091839991104
      z: 0.07254209013823729
      w: 0.9929764306876608
- header:
    stamp:
      sec: 1503376907
      nanosec: 970314000
    frame_id: map
  pose:
    position:
      x: -0.9914449453353882
      y: 0.12814760208129883
      z: 0.3547962009906769
    orientation:
      x: 0.056364087187449605
      y: 0.08258600555544016
      z: 0.08410333665084849
      w: 0.9914278967427796
- header:
    stamp:
      sec: 1503376908
      nanosec: 70486000
    frame_id: map
  pose:
    position:
      x: -1.0046454668045044
      y: 0.1718403548002243
      z: 0.42737022042274475
    orientation:
      x: 0.07451954067127103
      y: 0.070108346079725
      z: 0.08534161246451685
      w: 0.9910844994693179
- header:
    stamp:
      sec: 1503376908
      nanosec: 170543000
    frame_id: map
  pose:
    position:
      x: -0.9588190317153931
      y: 0.19642189145088196
      z: 0.49778634309768677
    orientation:
      x: 0.07399963577264143
      y: 0.06260723432484022
      z: 0.08747409202730445
      w: 0.9914396952225012
- header:
    stamp:
      sec: 1503376908
      nanosec: 270672000
    frame_id: map
  pose:
    position:
      x: -0.9304327964782715
      y: 0.24529439210891724
      z: 0.5687407851219177
    orientation:
      x: 0.06164265123148741
      y: 0.05734495064835974
      z: 0.09089105868649157
      w: 0.9922956047337698
- header:
    stamp:
      sec: 1503376908
      nanosec: 470819000
    frame_id: map
  pose:
    position:
      x: -0.8436615467071533
      y: 0.30993691086769104
      z: 0.5204030871391296
    orientation:
      x: 0.0715110206027792
      y: 0.0725050167288118
      z: 0.06787768809115428
      w: 0.9924826671062139
---
header:
  stamp:
    sec: 0
    nanosec: 0
  frame_id: map
poses:
- header:
    stamp:
      sec: 1598443455
      nanosec: 575383875
    frame_id: map
  pose:
    position:
      x: 0.0
      y: 0.0
      z: 0.0
    orientation:
      x: 0.0
      y: 0.0
      z: 0.0
      w: 1.0
- header:
    stamp:
      sec: 1503376898
      nanosec: 161835000
    frame_id: map
  pose:
    position:
      x: -0.00020274361304473132
      y: 0.03877759724855423
      z: 0.02998122200369835
    orientation:
      x: 0.002604393084389936
      y: -0.006935056808124707
      z: 0.0037268385963948637
      w: 0.9999656149793804
- header:
    stamp:
      sec: 1503376898
      nanosec: 362001000
    frame_id: map
  pose:
    position:
      x: -0.017160948365926743
      y: 0.02519875206053257
      z: 0.012391275726258755
    orientation:
      x: 0.00393222951944377
      y: -0.013984080036087237
      z: 0.012347967127253608
      w: 0.9998182116616768
- header:
    stamp:
      sec: 1503376907
      nanosec: 469871000
    frame_id: map
  pose:
    position:
      x: -0.8889729380607605
      y: -0.04706188291311264
      z: 0.5294861197471619
    orientation:
      x: 0.04612160645065592
      y: 0.07967870639021012
      z: -0.004923045051833834
      w: 0.9957408653939782
- header:
    stamp:
      sec: 1503376907
      nanosec: 569903000
    frame_id: map
  pose:
    position:
      x: -0.8970834612846375
      y: -0.06671807914972305
      z: 0.5298551917076111
    orientation:
      x: 0.06915485010816562
      y: 0.078826060487951
      z: 0.0002471401879867061
      w: 0.9944868103311106
- header:
    stamp:
      sec: 1503376907
      nanosec: 670012000
    frame_id: map
  pose:
    position:
      x: -0.8912058472633362
      y: 0.03098444454371929
      z: 0.4712192714214325
    orientation:
      x: 0.07502370456198777
      y: 0.07649488245228314
      z: 0.024470725170793375
      w: 0.9939422409480905
- header:
    stamp:
      sec: 1503376907
      nanosec: 770118000
    frame_id: map
  pose:
    position:
      x: -0.9490692615509033
      y: 0.07108333706855774
      z: 0.43216079473495483
    orientation:
      x: 0.07726527940934656
      y: 0.07944177958139809
      z: 0.05205922969316666
      w: 0.9924761359831404
- header:
    stamp:
      sec: 1503376907
      nanosec: 870221000
    frame_id: map
  pose:
    position:
      x: -0.9084222912788391
      y: 0.13219445943832397
      z: 0.4551522731781006
    orientation:
      x: 0.07354472348589396
      y: 0.057677091839991104
      z: 0.07254209013823729
      w: 0.9929764306876608
- header:
    stamp:
      sec: 1503376907
      nanosec: 970314000
    frame_id: map
  pose:
    position:
      x: -0.9914449453353882
      y: 0.12814760208129883
      z: 0.3547962009906769
    orientation:
      x: 0.056364087187449605
      y: 0.08258600555544016
      z: 0.08410333665084849
      w: 0.9914278967427796
- header:
    stamp:
      sec: 1503376908
      nanosec: 70486000
    frame_id: map
  pose:
    position:
      x: -1.0046454668045044
      y: 0.1718403548002243
      z: 0.42737022042274475
    orientation:
      x: 0.07451954067127103
      y: 0.070108346079725
      z: 0.08534161246451685
      w: 0.9910844994693179
- header:
    stamp:
      sec: 1503376908
      nanosec: 170543000
    frame_id: map
  pose:
    position:
      x: -0.9588190317153931
      y: 0.19642189145088196
      z: 0.49778634309768677
    orientation:
      x: 0.07399963577264143
      y: 0.06260723432484022
      z: 0.08747409202730445
      w: 0.9914396952225012
- header:
    stamp:
      sec: 1503376908
      nanosec: 270672000
    frame_id: map
  pose:
    position:
      x: -0.9304327964782715
      y: 0.24529439210891724
      z: 0.5687407851219177
    orientation:
      x: 0.06164265123148741
      y: 0.05734495064835974
      z: 0.09089105868649157
      w: 0.9922956047337698
- header:
    stamp:
      sec: 1503376908
      nanosec: 470819000
    frame_id: map
  pose:
    position:
      x: -0.8436615467071533
      y: 0.30993691086769104
      z: 0.5204030871391296
    orientation:
      x: 0.0715110206027792
      y: 0.0725050167288118
      z: 0.06787768809115428
      w: 0.9924826671062139
- header:
    stamp:
      sec: 1503376908
      nanosec: 570825000
    frame_id: map
  pose:
    position:
      x: -0.8817346096038818
      y: 0.39544877409935
      z: 0.4908604025840759
    orientation:
      x: 0.055266943257365704
      y: 0.07439792970687314
      z: 0.039653942030078104
      w: 0.9949060652232701
---
header:
  stamp:
    sec: 0
    nanosec: 0
  frame_id: map
poses:
- header:
    stamp:
      sec: 1598443455
      nanosec: 575383875
    frame_id: map
  pose:
    position:
      x: 0.0
      y: 0.0
      z: 0.0
    orientation:
      x: 0.0
      y: 0.0
      z: 0.0
      w: 1.0
- header:
    stamp:
      sec: 1503376898
      nanosec: 161835000
    frame_id: map
  pose:
    position:
      x: -0.00020274361304473132
      y: 0.03877759724855423
      z: 0.02998122200369835
    orientation:
      x: 0.002604393084389936
      y: -0.006935056808124707
      z: 0.0037268385963948637
      w: 0.9999656149793804
- header:
    stamp:
      sec: 1503376898
      nanosec: 362001000
    frame_id: map
  pose:
    position:
      x: -0.017160948365926743
      y: 0.02519875206053257
      z: 0.012391275726258755
    orientation:
      x: 0.00393222951944377
      y: -0.013984080036087237
      z: 0.012347967127253608
      w: 0.9998182116616768
- header:
    stamp:
      sec: 1503376907
      nanosec: 469871000
    frame_id: map
  pose:
    position:
      x: -0.8889729380607605
      y: -0.04706188291311264
      z: 0.5294861197471619
    orientation:
      x: 0.04612160645065592
      y: 0.07967870639021012
      z: -0.004923045051833834
      w: 0.9957408653939782
- header:
    stamp:
      sec: 1503376907
      nanosec: 569903000
    frame_id: map
  pose:
    position:
      x: -0.8970834612846375
      y: -0.06671807914972305
      z: 0.5298551917076111
    orientation:
      x: 0.06915485010816562
      y: 0.078826060487951
      z: 0.0002471401879867061
      w: 0.9944868103311106
- header:
    stamp:
      sec: 1503376907
      nanosec: 670012000
    frame_id: map
  pose:
    position:
      x: -0.8912058472633362
      y: 0.03098444454371929
      z: 0.4712192714214325
    orientation:
      x: 0.07502370456198777
      y: 0.07649488245228314
      z: 0.024470725170793375
      w: 0.9939422409480905
- header:
    stamp:
      sec: 1503376907
      nanosec: 770118000
    frame_id: map
  pose:
    position:
      x: -0.9490692615509033
      y: 0.07108333706855774
      z: 0.43216079473495483
    orientation:
      x: 0.07726527940934656
      y: 0.07944177958139809
      z: 0.05205922969316666
      w: 0.9924761359831404
- header:
    stamp:
      sec: 1503376907
      nanosec: 870221000
    frame_id: map
  pose:
    position:
      x: -0.9084222912788391
      y: 0.13219445943832397
      z: 0.4551522731781006
    orientation:
      x: 0.07354472348589396
      y: 0.057677091839991104
      z: 0.07254209013823729
      w: 0.9929764306876608
- header:
    stamp:
      sec: 1503376907
      nanosec: 970314000
    frame_id: map
  pose:
    position:
      x: -0.9914449453353882
      y: 0.12814760208129883
      z: 0.3547962009906769
    orientation:
      x: 0.056364087187449605
      y: 0.08258600555544016
      z: 0.08410333665084849
      w: 0.9914278967427796
- header:
    stamp:
      sec: 1503376908
      nanosec: 70486000
    frame_id: map
  pose:
    position:
      x: -1.0046454668045044
      y: 0.1718403548002243
      z: 0.42737022042274475
    orientation:
      x: 0.07451954067127103
      y: 0.070108346079725
      z: 0.08534161246451685
      w: 0.9910844994693179
- header:
    stamp:
      sec: 1503376908
      nanosec: 170543000
    frame_id: map
  pose:
    position:
      x: -0.9588190317153931
      y: 0.19642189145088196
      z: 0.49778634309768677
    orientation:
      x: 0.07399963577264143
      y: 0.06260723432484022
      z: 0.08747409202730445
      w: 0.9914396952225012
- header:
    stamp:
      sec: 1503376908
      nanosec: 270672000
    frame_id: map
  pose:
    position:
      x: -0.9304327964782715
      y: 0.24529439210891724
      z: 0.5687407851219177
    orientation:
      x: 0.06164265123148741
      y: 0.05734495064835974
      z: 0.09089105868649157
      w: 0.9922956047337698
- header:
    stamp:
      sec: 1503376908
      nanosec: 470819000
    frame_id: map
  pose:
    position:
      x: -0.8436615467071533
      y: 0.30993691086769104
      z: 0.5204030871391296
    orientation:
      x: 0.0715110206027792
      y: 0.0725050167288118
      z: 0.06787768809115428
      w: 0.9924826671062139
- header:
    stamp:
      sec: 1503376908
      nanosec: 570825000
    frame_id: map
  pose:
    position:
      x: -0.8817346096038818
      y: 0.39544877409935
      z: 0.4908604025840759
    orientation:
      x: 0.055266943257365704
      y: 0.07439792970687314
      z: 0.039653942030078104
      w: 0.9949060652232701
- header:
    stamp:
      sec: 1503376908
      nanosec: 670959000
    frame_id: map
  pose:
    position:
      x: -0.8185027837753296
      y: 0.5120213031768799
      z: 0.46634137630462646
    orientation:
      x: 0.05686255115476393
      y: 0.08448951959310992
      z: 0.02930663013581677
      w: 0.9943687911592062
---
header:
  stamp:
    sec: 0
    nanosec: 0
  frame_id: map
poses:
- header:
    stamp:
      sec: 1598443455
      nanosec: 575383875
    frame_id: map
  pose:
    position:
      x: 0.0
      y: 0.0
      z: 0.0
    orientation:
      x: 0.0
      y: 0.0
      z: 0.0
      w: 1.0
- header:
    stamp:
      sec: 1503376898
      nanosec: 161835000
    frame_id: map
  pose:
    position:
      x: -0.00020274361304473132
      y: 0.03877759724855423
      z: 0.02998122200369835
    orientation:
      x: 0.002604393084389936
      y: -0.006935056808124707
      z: 0.0037268385963948637
      w: 0.9999656149793804
- header:
    stamp:
      sec: 1503376898
      nanosec: 362001000
    frame_id: map
  pose:
    position:
      x: -0.017160948365926743
      y: 0.02519875206053257
      z: 0.012391275726258755
    orientation:
      x: 0.00393222951944377
      y: -0.013984080036087237
      z: 0.012347967127253608
      w: 0.9998182116616768
- header:
    stamp:
      sec: 1503376907
      nanosec: 469871000
    frame_id: map
  pose:
    position:
      x: -0.8889729380607605
      y: -0.04706188291311264
      z: 0.5294861197471619
    orientation:
      x: 0.04612160645065592
      y: 0.07967870639021012
      z: -0.004923045051833834
      w: 0.9957408653939782
- header:
    stamp:
      sec: 1503376907
      nanosec: 569903000
    frame_id: map
  pose:
    position:
      x: -0.8970834612846375
      y: -0.06671807914972305
      z: 0.5298551917076111
    orientation:
      x: 0.06915485010816562
      y: 0.078826060487951
      z: 0.0002471401879867061
      w: 0.9944868103311106
- header:
    stamp:
      sec: 1503376907
      nanosec: 670012000
    frame_id: map
  pose:
    position:
      x: -0.8912058472633362
      y: 0.03098444454371929
      z: 0.4712192714214325
    orientation:
      x: 0.07502370456198777
      y: 0.07649488245228314
      z: 0.024470725170793375
      w: 0.9939422409480905
- header:
    stamp:
      sec: 1503376907
      nanosec: 770118000
    frame_id: map
  pose:
    position:
      x: -0.9490692615509033
      y: 0.07108333706855774
      z: 0.43216079473495483
    orientation:
      x: 0.07726527940934656
      y: 0.07944177958139809
      z: 0.05205922969316666
      w: 0.9924761359831404
- header:
    stamp:
      sec: 1503376907
      nanosec: 870221000
    frame_id: map
  pose:
    position:
      x: -0.9084222912788391
      y: 0.13219445943832397
      z: 0.4551522731781006
    orientation:
      x: 0.07354472348589396
      y: 0.057677091839991104
      z: 0.07254209013823729
      w: 0.9929764306876608
- header:
    stamp:
      sec: 1503376907
      nanosec: 970314000
    frame_id: map
  pose:
    position:
      x: -0.9914449453353882
      y: 0.12814760208129883
      z: 0.3547962009906769
    orientation:
      x: 0.056364087187449605
      y: 0.08258600555544016
      z: 0.08410333665084849
      w: 0.9914278967427796
- header:
    stamp:
      sec: 1503376908
      nanosec: 70486000
    frame_id: map
  pose:
    position:
      x: -1.0046454668045044
      y: 0.1718403548002243
      z: 0.42737022042274475
    orientation:
      x: 0.07451954067127103
      y: 0.070108346079725
      z: 0.08534161246451685
      w: 0.9910844994693179
- header:
    stamp:
      sec: 1503376908
      nanosec: 170543000
    frame_id: map
  pose:
    position:
      x: -0.9588190317153931
      y: 0.19642189145088196
      z: 0.49778634309768677
    orientation:
      x: 0.07399963577264143
      y: 0.06260723432484022
      z: 0.08747409202730445
      w: 0.9914396952225012
- header:
    stamp:
      sec: 1503376908
      nanosec: 270672000
    frame_id: map
  pose:
    position:
      x: -0.9304327964782715
      y: 0.24529439210891724
      z: 0.5687407851219177
    orientation:
      x: 0.06164265123148741
      y: 0.05734495064835974
      z: 0.09089105868649157
      w: 0.9922956047337698
- header:
    stamp:
      sec: 1503376908
      nanosec: 470819000
    frame_id: map
  pose:
    position:
      x: -0.8436615467071533
      y: 0.30993691086769104
      z: 0.5204030871391296
    orientation:
      x: 0.0715110206027792
      y: 0.0725050167288118
      z: 0.06787768809115428
      w: 0.9924826671062139
- header:
    stamp:
      sec: 1503376908
      nanosec: 570825000
    frame_id: map
  pose:
    position:
      x: -0.8817346096038818
      y: 0.39544877409935
      z: 0.4908604025840759
    orientation:
      x: 0.055266943257365704
      y: 0.07439792970687314
      z: 0.039653942030078104
      w: 0.9949060652232701
- header:
    stamp:
      sec: 1503376908
      nanosec: 670959000
    frame_id: map
  pose:
    position:
      x: -0.8185027837753296
      y: 0.5120213031768799
      z: 0.46634137630462646
    orientation:
      x: 0.05686255115476393
      y: 0.08448951959310992
      z: 0.02930663013581677
      w: 0.9943687911592062
- header:
    stamp:
      sec: 1503376908
      nanosec: 771026000
    frame_id: map
  pose:
    position:
      x: -0.7517524361610413
      y: 0.5471768379211426
      z: 0.44827067852020264
    orientation:
      x: 0.043624779576330805
      y: 0.08235472995662442
      z: 0.023875235819596205
      w: 0.995361522742845
---
header:
  stamp:
    sec: 0
    nanosec: 0
  frame_id: map
poses:
- header:
    stamp:
      sec: 1598443455
      nanosec: 575383875
    frame_id: map
  pose:
    position:
      x: 0.0
      y: 0.0
      z: 0.0
    orientation:
      x: 0.0
      y: 0.0
      z: 0.0
      w: 1.0
- header:
    stamp:
      sec: 1503376898
      nanosec: 161835000
    frame_id: map
  pose:
    position:
      x: -0.00020274361304473132
      y: 0.03877759724855423
      z: 0.02998122200369835
    orientation:
      x: 0.002604393084389936
      y: -0.006935056808124707
      z: 0.0037268385963948637
      w: 0.9999656149793804
- header:
    stamp:
      sec: 1503376898
      nanosec: 362001000
    frame_id: map
  pose:
    position:
      x: -0.017160948365926743
      y: 0.02519875206053257
      z: 0.012391275726258755
    orientation:
      x: 0.00393222951944377
      y: -0.013984080036087237
      z: 0.012347967127253608
      w: 0.9998182116616768
- header:
    stamp:
      sec: 1503376907
      nanosec: 469871000
    frame_id: map
  pose:
    position:
      x: -0.8889729380607605
      y: -0.04706188291311264
      z: 0.5294861197471619
    orientation:
      x: 0.04612160645065592
      y: 0.07967870639021012
      z: -0.004923045051833834
      w: 0.9957408653939782
- header:
    stamp:
      sec: 1503376907
      nanosec: 569903000
    frame_id: map
  pose:
    position:
      x: -0.8970834612846375
      y: -0.06671807914972305
      z: 0.5298551917076111
    orientation:
      x: 0.06915485010816562
      y: 0.078826060487951
      z: 0.0002471401879867061
      w: 0.9944868103311106
- header:
    stamp:
      sec: 1503376907
      nanosec: 670012000
    frame_id: map
  pose:
    position:
      x: -0.8912058472633362
      y: 0.03098444454371929
      z: 0.4712192714214325
    orientation:
      x: 0.07502370456198777
      y: 0.07649488245228314
      z: 0.024470725170793375
      w: 0.9939422409480905
- header:
    stamp:
      sec: 1503376907
      nanosec: 770118000
    frame_id: map
  pose:
    position:
      x: -0.9490692615509033
      y: 0.07108333706855774
      z: 0.43216079473495483
    orientation:
      x: 0.07726527940934656
      y: 0.07944177958139809
      z: 0.05205922969316666
      w: 0.9924761359831404
- header:
    stamp:
      sec: 1503376907
      nanosec: 870221000
    frame_id: map
  pose:
    position:
      x: -0.9084222912788391
      y: 0.13219445943832397
      z: 0.4551522731781006
    orientation:
      x: 0.07354472348589396
      y: 0.057677091839991104
      z: 0.07254209013823729
      w: 0.9929764306876608
- header:
    stamp:
      sec: 1503376907
      nanosec: 970314000
    frame_id: map
  pose:
    position:
      x: -0.9914449453353882
      y: 0.12814760208129883
      z: 0.3547962009906769
    orientation:
      x: 0.056364087187449605
      y: 0.08258600555544016
      z: 0.08410333665084849
      w: 0.9914278967427796
- header:
    stamp:
      sec: 1503376908
      nanosec: 70486000
    frame_id: map
  pose:
    position:
      x: -1.0046454668045044
      y: 0.1718403548002243
      z: 0.42737022042274475
    orientation:
      x: 0.07451954067127103
      y: 0.070108346079725
      z: 0.08534161246451685
      w: 0.9910844994693179
- header:
    stamp:
      sec: 1503376908
      nanosec: 170543000
    frame_id: map
  pose:
    position:
      x: -0.9588190317153931
      y: 0.19642189145088196
      z: 0.49778634309768677
    orientation:
      x: 0.07399963577264143
      y: 0.06260723432484022
      z: 0.08747409202730445
      w: 0.9914396952225012
- header:
    stamp:
      sec: 1503376908
      nanosec: 270672000
    frame_id: map
  pose:
    position:
      x: -0.9304327964782715
      y: 0.24529439210891724
      z: 0.5687407851219177
    orientation:
      x: 0.06164265123148741
      y: 0.05734495064835974
      z: 0.09089105868649157
      w: 0.9922956047337698
- header:
    stamp:
      sec: 1503376908
      nanosec: 470819000
    frame_id: map
  pose:
    position:
      x: -0.8436615467071533
      y: 0.30993691086769104
      z: 0.5204030871391296
    orientation:
      x: 0.0715110206027792
      y: 0.0725050167288118
      z: 0.06787768809115428
      w: 0.9924826671062139
- header:
    stamp:
      sec: 1503376908
      nanosec: 570825000
    frame_id: map
  pose:
    position:
      x: -0.8817346096038818
      y: 0.39544877409935
      z: 0.4908604025840759
    orientation:
      x: 0.055266943257365704
      y: 0.07439792970687314
      z: 0.039653942030078104
      w: 0.9949060652232701
- header:
    stamp:
      sec: 1503376908
      nanosec: 670959000
    frame_id: map
  pose:
    position:
      x: -0.8185027837753296
      y: 0.5120213031768799
      z: 0.46634137630462646
    orientation:
      x: 0.05686255115476393
      y: 0.08448951959310992
      z: 0.02930663013581677
      w: 0.9943687911592062
- header:
    stamp:
      sec: 1503376908
      nanosec: 771026000
    frame_id: map
  pose:
    position:
      x: -0.7517524361610413
      y: 0.5471768379211426
      z: 0.44827067852020264
    orientation:
      x: 0.043624779576330805
      y: 0.08235472995662442
      z: 0.023875235819596205
      w: 0.995361522742845
- header:
    stamp:
      sec: 1503376908
      nanosec: 871148000
    frame_id: map
  pose:
    position:
      x: -0.7573519945144653
      y: 0.5674530267715454
      z: 0.449725478887558
    orientation:
      x: 0.04118912913179073
      y: 0.08158404442910908
      z: 0.02048682870229558
      w: 0.9956042489441438
---
header:
  stamp:
    sec: 0
    nanosec: 0
  frame_id: map
poses:
- header:
    stamp:
      sec: 1598443455
      nanosec: 575383875
    frame_id: map
  pose:
    position:
      x: 0.0
      y: 0.0
      z: 0.0
    orientation:
      x: 0.0
      y: 0.0
      z: 0.0
      w: 1.0
- header:
    stamp:
      sec: 1503376898
      nanosec: 161835000
    frame_id: map
  pose:
    position:
      x: -0.00020274361304473132
      y: 0.03877759724855423
      z: 0.02998122200369835
    orientation:
      x: 0.002604393084389936
      y: -0.006935056808124707
      z: 0.0037268385963948637
      w: 0.9999656149793804
- header:
    stamp:
      sec: 1503376898
      nanosec: 362001000
    frame_id: map
  pose:
    position:
      x: -0.017160948365926743
      y: 0.02519875206053257
      z: 0.012391275726258755
    orientation:
      x: 0.00393222951944377
      y: -0.013984080036087237
      z: 0.012347967127253608
      w: 0.9998182116616768
- header:
    stamp:
      sec: 1503376907
      nanosec: 469871000
    frame_id: map
  pose:
    position:
      x: -0.8889729380607605
      y: -0.04706188291311264
      z: 0.5294861197471619
    orientation:
      x: 0.04612160645065592
      y: 0.07967870639021012
      z: -0.004923045051833834
      w: 0.9957408653939782
- header:
    stamp:
      sec: 1503376907
      nanosec: 569903000
    frame_id: map
  pose:
    position:
      x: -0.8970834612846375
      y: -0.06671807914972305
      z: 0.5298551917076111
    orientation:
      x: 0.06915485010816562
      y: 0.078826060487951
      z: 0.0002471401879867061
      w: 0.9944868103311106
- header:
    stamp:
      sec: 1503376907
      nanosec: 670012000
    frame_id: map
  pose:
    position:
      x: -0.8912058472633362
      y: 0.03098444454371929
      z: 0.4712192714214325
    orientation:
      x: 0.07502370456198777
      y: 0.07649488245228314
      z: 0.024470725170793375
      w: 0.9939422409480905
- header:
    stamp:
      sec: 1503376907
      nanosec: 770118000
    frame_id: map
  pose:
    position:
      x: -0.9490692615509033
      y: 0.07108333706855774
      z: 0.43216079473495483
    orientation:
      x: 0.07726527940934656
      y: 0.07944177958139809
      z: 0.05205922969316666
      w: 0.9924761359831404
- header:
    stamp:
      sec: 1503376907
      nanosec: 870221000
    frame_id: map
  pose:
    position:
      x: -0.9084222912788391
      y: 0.13219445943832397
      z: 0.4551522731781006
    orientation:
      x: 0.07354472348589396
      y: 0.057677091839991104
      z: 0.07254209013823729
      w: 0.9929764306876608
- header:
    stamp:
      sec: 1503376907
      nanosec: 970314000
    frame_id: map
  pose:
    position:
      x: -0.9914449453353882
      y: 0.12814760208129883
      z: 0.3547962009906769
    orientation:
      x: 0.056364087187449605
      y: 0.08258600555544016
      z: 0.08410333665084849
      w: 0.9914278967427796
- header:
    stamp:
      sec: 1503376908
      nanosec: 70486000
    frame_id: map
  pose:
    position:
      x: -1.0046454668045044
      y: 0.1718403548002243
      z: 0.42737022042274475
    orientation:
      x: 0.07451954067127103
      y: 0.070108346079725
      z: 0.08534161246451685
      w: 0.9910844994693179
- header:
    stamp:
      sec: 1503376908
      nanosec: 170543000
    frame_id: map
  pose:
    position:
      x: -0.9588190317153931
      y: 0.19642189145088196
      z: 0.49778634309768677
    orientation:
      x: 0.07399963577264143
      y: 0.06260723432484022
      z: 0.08747409202730445
      w: 0.9914396952225012
- header:
    stamp:
      sec: 1503376908
      nanosec: 270672000
    frame_id: map
  pose:
    position:
      x: -0.9304327964782715
      y: 0.24529439210891724
      z: 0.5687407851219177
    orientation:
      x: 0.06164265123148741
      y: 0.05734495064835974
      z: 0.09089105868649157
      w: 0.9922956047337698
- header:
    stamp:
      sec: 1503376908
      nanosec: 470819000
    frame_id: map
  pose:
    position:
      x: -0.8436615467071533
      y: 0.30993691086769104
      z: 0.5204030871391296
    orientation:
      x: 0.0715110206027792
      y: 0.0725050167288118
      z: 0.06787768809115428
      w: 0.9924826671062139
- header:
    stamp:
      sec: 1503376908
      nanosec: 570825000
    frame_id: map
  pose:
    position:
      x: -0.8817346096038818
      y: 0.39544877409935
      z: 0.4908604025840759
    orientation:
      x: 0.055266943257365704
      y: 0.07439792970687314
      z: 0.039653942030078104
      w: 0.9949060652232701
- header:
    stamp:
      sec: 1503376908
      nanosec: 670959000
    frame_id: map
  pose:
    position:
      x: -0.8185027837753296
      y: 0.5120213031768799
      z: 0.46634137630462646
    orientation:
      x: 0.05686255115476393
      y: 0.08448951959310992
      z: 0.02930663013581677
      w: 0.9943687911592062
- header:
    stamp:
      sec: 1503376908
      nanosec: 771026000
    frame_id: map
  pose:
    position:
      x: -0.7517524361610413
      y: 0.5471768379211426
      z: 0.44827067852020264
    orientation:
      x: 0.043624779576330805
      y: 0.08235472995662442
      z: 0.023875235819596205
      w: 0.995361522742845
- header:
    stamp:
      sec: 1503376908
      nanosec: 871148000
    frame_id: map
  pose:
    position:
      x: -0.7573519945144653
      y: 0.5674530267715454
      z: 0.449725478887558
    orientation:
      x: 0.04118912913179073
      y: 0.08158404442910908
      z: 0.02048682870229558
      w: 0.9956042489441438
- header:
    stamp:
      sec: 1503376908
      nanosec: 971268000
    frame_id: map
  pose:
    position:
      x: -0.7287141680717468
      y: 0.5991783738136292
      z: 0.4883405268192291
    orientation:
      x: 0.04201757819803952
      y: 0.0829018178360784
      z: 0.012377586207436108
      w: 0.9955945802460809
---
header:
  stamp:
    sec: 0
    nanosec: 0
  frame_id: map
poses:
- header:
    stamp:
      sec: 1598443455
      nanosec: 575383875
    frame_id: map
  pose:
    position:
      x: 0.0
      y: 0.0
      z: 0.0
    orientation:
      x: 0.0
      y: 0.0
      z: 0.0
      w: 1.0
- header:
    stamp:
      sec: 1503376898
      nanosec: 161835000
    frame_id: map
  pose:
    position:
      x: -0.00020274361304473132
      y: 0.03877759724855423
      z: 0.02998122200369835
    orientation:
      x: 0.002604393084389936
      y: -0.006935056808124707
      z: 0.0037268385963948637
      w: 0.9999656149793804
- header:
    stamp:
      sec: 1503376898
      nanosec: 362001000
    frame_id: map
  pose:
    position:
      x: -0.017160948365926743
      y: 0.02519875206053257
      z: 0.012391275726258755
    orientation:
      x: 0.00393222951944377
      y: -0.013984080036087237
      z: 0.012347967127253608
      w: 0.9998182116616768
- header:
    stamp:
      sec: 1503376907
      nanosec: 469871000
    frame_id: map
  pose:
    position:
      x: -0.8889729380607605
      y: -0.04706188291311264
      z: 0.5294861197471619
    orientation:
      x: 0.04612160645065592
      y: 0.07967870639021012
      z: -0.004923045051833834
      w: 0.9957408653939782
- header:
    stamp:
      sec: 1503376907
      nanosec: 569903000
    frame_id: map
  pose:
    position:
      x: -0.8970834612846375
      y: -0.06671807914972305
      z: 0.5298551917076111
    orientation:
      x: 0.06915485010816562
      y: 0.078826060487951
      z: 0.0002471401879867061
      w: 0.9944868103311106
- header:
    stamp:
      sec: 1503376907
      nanosec: 670012000
    frame_id: map
  pose:
    position:
      x: -0.8912058472633362
      y: 0.03098444454371929
      z: 0.4712192714214325
    orientation:
      x: 0.07502370456198777
      y: 0.07649488245228314
      z: 0.024470725170793375
      w: 0.9939422409480905
- header:
    stamp:
      sec: 1503376907
      nanosec: 770118000
    frame_id: map
  pose:
    position:
      x: -0.9490692615509033
      y: 0.07108333706855774
      z: 0.43216079473495483
    orientation:
      x: 0.07726527940934656
      y: 0.07944177958139809
      z: 0.05205922969316666
      w: 0.9924761359831404
- header:
    stamp:
      sec: 1503376907
      nanosec: 870221000
    frame_id: map
  pose:
    position:
      x: -0.9084222912788391
      y: 0.13219445943832397
      z: 0.4551522731781006
    orientation:
      x: 0.07354472348589396
      y: 0.057677091839991104
      z: 0.07254209013823729
      w: 0.9929764306876608
- header:
    stamp:
      sec: 1503376907
      nanosec: 970314000
    frame_id: map
  pose:
    position:
      x: -0.9914449453353882
      y: 0.12814760208129883
      z: 0.3547962009906769
    orientation:
      x: 0.056364087187449605
      y: 0.08258600555544016
      z: 0.08410333665084849
      w: 0.9914278967427796
- header:
    stamp:
      sec: 1503376908
      nanosec: 70486000
    frame_id: map
  pose:
    position:
      x: -1.0046454668045044
      y: 0.1718403548002243
      z: 0.42737022042274475
    orientation:
      x: 0.07451954067127103
      y: 0.070108346079725
      z: 0.08534161246451685
      w: 0.9910844994693179
- header:
    stamp:
      sec: 1503376908
      nanosec: 170543000
    frame_id: map
  pose:
    position:
      x: -0.9588190317153931
      y: 0.19642189145088196
      z: 0.49778634309768677
    orientation:
      x: 0.07399963577264143
      y: 0.06260723432484022
      z: 0.08747409202730445
      w: 0.9914396952225012
- header:
    stamp:
      sec: 1503376908
      nanosec: 270672000
    frame_id: map
  pose:
    position:
      x: -0.9304327964782715
      y: 0.24529439210891724
      z: 0.5687407851219177
    orientation:
      x: 0.06164265123148741
      y: 0.05734495064835974
      z: 0.09089105868649157
      w: 0.9922956047337698
- header:
    stamp:
      sec: 1503376908
      nanosec: 470819000
    frame_id: map
  pose:
    position:
      x: -0.8436615467071533
      y: 0.30993691086769104
      z: 0.5204030871391296
    orientation:
      x: 0.0715110206027792
      y: 0.0725050167288118
      z: 0.06787768809115428
      w: 0.9924826671062139
- header:
    stamp:
      sec: 1503376908
      nanosec: 570825000
    frame_id: map
  pose:
    position:
      x: -0.8817346096038818
      y: 0.39544877409935
      z: 0.4908604025840759
    orientation:
      x: 0.055266943257365704
      y: 0.07439792970687314
      z: 0.039653942030078104
      w: 0.9949060652232701
- header:
    stamp:
      sec: 1503376908
      nanosec: 670959000
    frame_id: map
  pose:
    position:
      x: -0.8185027837753296
      y: 0.5120213031768799
      z: 0.46634137630462646
    orientation:
      x: 0.05686255115476393
      y: 0.08448951959310992
      z: 0.02930663013581677
      w: 0.9943687911592062
- header:
    stamp:
      sec: 1503376908
